[
    {
        "name": "daea",
        "ko_name": "대아저수지",
        "latitude": "35.97452076",
        "longitude": "127.2734395",
        "위치": "전북특별자치도 완주군 동상면 대아리 산77-1",
        "유효저수량": "57688"
    },
    {
        "name": "tapjeong",
        "ko_name": "탑정저수지",
        "latitude": "36.15183221",
        "longitude": "129.2037926",
        "위치": "충청남도 논산시 가야곡면 종연리 산57",
        "유효저수량": "34940"
    },
    {
        "name": "hadong",
        "ko_name": "하동저수지",
        "latitude": "35.80062791",
        "longitude": "129.3107495",
        "위치": "경상남도 하동군 청암면 평촌리 산159-3",
        "유효저수량": "30336.9"
    },
    {
        "name": "seongju",
        "ko_name": "성주저수지",
        "latitude": "35.18268347",
        "longitude": "128.7114212",
        "위치": "경상북도 성주군 가천면 중산리 산51-9",
        "유효저수량": "28150"
    },
    {
        "name": "gyeongcheon",
        "ko_name": "경천저수지",
        "latitude": "36.03191589",
        "longitude": "127.2322876",
        "위치": "경상북도 문경시 동로면 마광리 산123-9",
        "유효저수량": "27200"
    },
    {
        "name": "baekgok",
        "ko_name": "백곡저수지",
        "latitude": "36.08573225",
        "longitude": "128.4460434",
        "위치": "충청북도 진천군 진천읍 행정리 산2-2",
        "유효저수량": "26372"
    },
    {
        "name": "gyeongcheon",
        "ko_name": "경천저수지",
        "latitude": "36.03191589",
        "longitude": "127.2322876",
        "위치": "전북특별자치도 완주군 화산면 운제리 산67-6",
        "유효저수량": "25346"
    },
    {
        "name": "idong",
        "ko_name": "이동저수지",
        "latitude": "37.11629876",
        "longitude": "127.1987949",
        "위치": "경기도 용인시 처인구 이동읍 어비리 1093-3",
        "유효저수량": "20906"
    },
    {
        "name": "cheongcheon",
        "ko_name": "청천저수지",
        "latitude": "35.22753807",
        "longitude": "127.4984959",
        "위치": "충청남도 보령시 죽정동 2-7",
        "유효저수량": "20753.1"
    },
    {
        "name": "cheongho",
        "ko_name": "청호저수지",
        "latitude": "34.80293901",
        "longitude": "126.5135036",
        "위치": "전북특별자치도 부안군 행안면 삼간리 708",
        "유효저수량": "18045"
    },
    {
        "name": "gosam",
        "ko_name": "고삼저수지",
        "latitude": "37.08405079",
        "longitude": "127.2868769",
        "위치": "경기도 안성시 고삼면 봉산리 624-1",
        "유효저수량": "15217"
    },
    {
        "name": "bulgap",
        "ko_name": "불갑저수지",
        "latitude": "35.07934691",
        "longitude": "126.0621032",
        "위치": "전라남도 영광군 불갑면 녹산리 126-1",
        "유효저수량": "15200"
    },
    {
        "name": "obong",
        "ko_name": "오봉저수지",
        "latitude": "37.69553849",
        "longitude": "128.8170514",
        "위치": "강원특별자치도 강릉시 성산면 오봉리 산111-2",
        "유효저수량": "14329.1"
    },
    {
        "name": "maengdong",
        "ko_name": "맹동저수지",
        "latitude": "36.90287294",
        "longitude": "127.5744182",
        "위치": "충청북도 음성군 맹동면 통동리 176-1",
        "유효저수량": "13907.1"
    },
    {
        "name": "okgu",
        "ko_name": "옥구저수지",
        "latitude": "35.92934067",
        "longitude": "126.6584084",
        "위치": "전북특별자치도 군산시 옥구읍 어은리 753-21",
        "유효저수량": "12826.1"
    },
    {
        "name": "suyang",
        "ko_name": "수양저수지",
        "latitude": "34.96435388",
        "longitude": "128.201136",
        "위치": "전라남도 장성군 삼서면 두월리 산56-5",
        "유효저수량": "11834.1"
    },
    {
        "name": "dongsang",
        "ko_name": "동상저수지",
        "latitude": "35.94981364",
        "longitude": "127.2778225",
        "위치": "전북특별자치도 완주군 동상면 대아리 산39-7",
        "유효저수량": "11241"
    },
    {
        "name": "dongbu",
        "ko_name": "동부저수지",
        "latitude": "34.81218367",
        "longitude": "128.6237708",
        "위치": "충청남도 서천군 마산면 이사리 49-15",
        "유효저수량": "10733.8"
    },
    {
        "name": "gui",
        "ko_name": "구이저수지",
        "latitude": "35.72732039",
        "longitude": "127.1269227",
        "위치": "전북특별자치도 완주군 구이면 두현리 30",
        "유효저수량": "10307"
    },
    {
        "name": "dalchang",
        "ko_name": "달창저수지",
        "latitude": "35.63843208",
        "longitude": "128.4788775",
        "위치": "경상남도 창녕군 성산면 후천리 551-1",
        "유효저수량": "8649"
    },
    {
        "name": "myogok",
        "ko_name": "묘곡저수지",
        "latitude": "36.52091354",
        "longitude": "129.3511493",
        "위치": "경상북도 영덕군 영해면 묘곡리 산278-2",
        "유효저수량": "8441"
    },
    {
        "name": "otae",
        "ko_name": "오태저수지",
        "latitude": "36.49154215",
        "longitude": "128.123495",
        "위치": "경상북도 상주시 공검면 병암리 90",
        "유효저수량": "8291"
    },
    {
        "name": "biryong",
        "ko_name": "비룡저수지",
        "latitude": "35.11735443",
        "longitude": "126.4558242",
        "위치": "충청북도 보은군 장안면 서원리 산5-5",
        "유효저수량": "8163"
    },
    {
        "name": "seonggok",
        "ko_name": "성곡저수지",
        "latitude": "35.65596247",
        "longitude": "128.5882528",
        "위치": "경상북도 청도군 풍각면 성곡리 산277-2",
        "유효저수량": "8042.6"
    },
    {
        "name": "seobu",
        "ko_name": "서부저수지",
        "latitude": "36.12980164",
        "longitude": "126.6912081",
        "위치": "충청남도 서천군 종천면 석촌리 580-11",
        "유효저수량": "7989"
    },
    {
        "name": "jangnam",
        "ko_name": "장남저수지",
        "latitude": "34.62427208",
        "longitude": "127.3976279",
        "위치": "전북특별자치도 장수군 번암면 국포리 산82-1",
        "유효저수량": "7920.8"
    },
    {
        "name": "gopung",
        "ko_name": "고풍저수지",
        "latitude": "36.78767128",
        "longitude": "126.6019351",
        "위치": "충청남도 서산시 운산면 고풍리 542-6",
        "유효저수량": "7821.8"
    },
    {
        "name": "daedong",
        "ko_name": "대동저수지",
        "latitude": "35.61051836",
        "longitude": "128.4555201",
        "위치": "전라남도 함평군 대동면 운교리 산151-4",
        "유효저수량": "7502.1"
    },
    {
        "name": "geumbong",
        "ko_name": "금봉저수지",
        "latitude": "36.93371767",
        "longitude": "128.7876294",
        "위치": "경상북도 의성군 옥산면 금학리 산63-7",
        "유효저수량": "7259.2"
    },
    {
        "name": "sucheong",
        "ko_name": "수청저수지",
        "latitude": "35.39292699",
        "longitude": "128.0134156",
        "위치": "전북특별자치도 정읍시 칠보면 수청리 산48-2",
        "유효저수량": "7001"
    },
    {
        "name": "yongdang",
        "ko_name": "용당저수지",
        "latitude": "34.69550761",
        "longitude": "127.2526704",
        "위치": "충청북도 충주시 신니면 문숭리 산15-1",
        "유효저수량": "6831"
    },
    {
        "name": "ochang",
        "ko_name": "오창저수지",
        "latitude": "36.75082818",
        "longitude": "127.4129283",
        "위치": "충청북도 청주시 청원구 오창읍 성산리 산4-6",
        "유효저수량": "6390"
    },
    {
        "name": "mabuk",
        "ko_name": "마북저수지",
        "latitude": "36.18245786",
        "longitude": "129.2630364",
        "위치": "경상북도 포항시 북구 신광면 반곡리 산54-3",
        "유효저수량": "6160"
    },
    {
        "name": "sangpan",
        "ko_name": "상판저수지",
        "latitude": "36.30181013",
        "longitude": "128.0143306",
        "위치": "경상북도 상주시 모동면 상판리 산18-5",
        "유효저수량": "5679.2"
    },
    {
        "name": "deogyong",
        "ko_name": "덕용저수지",
        "latitude": "36.14369703",
        "longitude": "126.8206125",
        "위치": "충청남도 부여군 양화면 송정리 477-18",
        "유효저수량": "5660.9"
    },
    {
        "name": "bansan",
        "ko_name": "반산저수지",
        "latitude": "34.64577761",
        "longitude": "127.2982865",
        "위치": "충청남도 부여군 규암면 합송리 389-4",
        "유효저수량": "5652"
    },
    {
        "name": "junam",
        "ko_name": "주남저수지",
        "latitude": "35.31238054",
        "longitude": "128.6804125",
        "위치": "경상남도 창원시 의창구 동읍 월잠리 306-7",
        "유효저수량": "5590.8"
    },
    {
        "name": "yongyeon",
        "ko_name": "용연저수지",
        "latitude": "35.65963022",
        "longitude": "128.4357709",
        "위치": "경상북도 포항시 북구 신광면 호리 산93",
        "유효저수량": "5586.7"
    },
    {
        "name": "bocheong",
        "ko_name": "보청저수지",
        "latitude": "36.47319793",
        "longitude": "127.6715423",
        "위치": "충청북도 보은군 수한면 병원리 산60-6",
        "유효저수량": "5561"
    },
    {
        "name": "jangchi",
        "ko_name": "장치저수지",
        "latitude": "34.91417331",
        "longitude": "127.0366527",
        "위치": "전라남도 화순군 이양면 용반리 산27-10",
        "유효저수량": "5484.7"
    },
    {
        "name": "geumgye",
        "ko_name": "금계저수지",
        "latitude": "36.90516879",
        "longitude": "128.5248656",
        "위치": "경상북도 영주시 풍기읍 욱금리 산12-4",
        "유효저수량": "5271"
    },
    {
        "name": "geumpyeong",
        "ko_name": "금평저수지",
        "latitude": "35.72162619",
        "longitude": "127.0182869",
        "위치": "전북특별자치도 김제시 금산면 금산리 산115-6",
        "유효저수량": "5251.9"
    },
    {
        "name": "samheung",
        "ko_name": "삼흥저수지",
        "latitude": "34.5829663",
        "longitude": "126.8449057",
        "위치": "전라남도 강진군 칠량면 삼흥리 산135-5",
        "유효저수량": "5250"
    },
    {
        "name": "sagok",
        "ko_name": "사곡저수지",
        "latitude": "36.32234732",
        "longitude": "128.352943",
        "위치": "경상북도 의성군 사곡면 공정리 산220-1",
        "유효저수량": "5175"
    },
    {
        "name": "hwanggeum",
        "ko_name": "황금저수지",
        "latitude": "34.72686287",
        "longitude": "126.1124613",
        "위치": "전북특별자치도 진안군 부귀면 황금리 산175-16",
        "유효저수량": "5007"
    },
    {
        "name": "yongam",
        "ko_name": "용암저수지",
        "latitude": "37.84720472",
        "longitude": "127.0449621",
        "위치": "세종특별자치시 연서면 고복리 산56-2",
        "유효저수량": "4867.9"
    },
    {
        "name": "gungok",
        "ko_name": "군곡저수지",
        "latitude": "35.88026023",
        "longitude": "129.0827083",
        "위치": "전라남도 해남군 송지면 해원리 산219-4",
        "유효저수량": "4847.7"
    },
    {
        "name": "naejang",
        "ko_name": "내장저수지",
        "latitude": "35.51508408",
        "longitude": "126.9022099",
        "위치": "전북특별자치도 정읍시 쌍암동 산125-2",
        "유효저수량": "4828.2"
    },
    {
        "name": "geumjeon",
        "ko_name": "금전저수지",
        "latitude": "34.97465697",
        "longitude": "126.9872138",
        "위치": "전라남도 화순군 한천면 금전리 산1-1",
        "유효저수량": "4824.3"
    },
    {
        "name": "deokgok",
        "ko_name": "덕곡저수지",
        "latitude": "34.99624143",
        "longitude": "128.073252",
        "위치": "경상북도 고령군 덕곡면 노리 산126-1",
        "유효저수량": "4810.9"
    },
    {
        "name": "guseong",
        "ko_name": "구성저수지",
        "latitude": "36.02994206",
        "longitude": "128.8620304",
        "위치": "전라남도 곡성군 오곡면 구성리 산139-30",
        "유효저수량": "4804.8"
    },
    {
        "name": "hagok",
        "ko_name": "하곡저수지",
        "latitude": "35.16873926",
        "longitude": "128.3531619",
        "위치": "경상북도 경주시 안강읍 두류리 산145-2",
        "유효저수량": "4783.8"
    },
    {
        "name": "chilgap",
        "ko_name": "칠갑저수지",
        "latitude": "36.4391318",
        "longitude": "126.8483698",
        "위치": "충청남도 청양군 대치면 광대리 404-16",
        "유효저수량": "4760"
    },
    {
        "name": "gyesan",
        "ko_name": "계산저수지",
        "latitude": "35.46644775",
        "longitude": "126.5992097",
        "위치": "전북특별자치도 고창군 아산면 학전리 산7-1",
        "유효저수량": "4741"
    },
    {
        "name": "gyeryong",
        "ko_name": "계룡저수지",
        "latitude": "36.35803774",
        "longitude": "127.1531985",
        "위치": "충청남도 공주시 계룡면 하대리 산53-1",
        "유효저수량": "4716.8"
    },
    {
        "name": "madun",
        "ko_name": "마둔저수지",
        "latitude": "36.97034529",
        "longitude": "127.3112369",
        "위치": "경기도 안성시 금광면 오산리 산34-6",
        "유효저수량": "4707.3"
    },
    {
        "name": "boksim",
        "ko_name": "복심저수지",
        "latitude": "36.18237856",
        "longitude": "126.8510672",
        "위치": "충청남도 부여군 충화면 만지리 431-6",
        "유효저수량": "4706.4"
    },
    {
        "name": "okgye",
        "ko_name": "옥계저수지",
        "latitude": "37.61862674",
        "longitude": "128.9839106",
        "위치": "경상남도 함양군 병곡면 원산리 산39-10",
        "유효저수량": "4620"
    },
    {
        "name": "daega",
        "ko_name": "대가저수지",
        "latitude": "34.99932474",
        "longitude": "128.3079443",
        "위치": "경상남도 고성군 고성읍 덕선리 산1-3",
        "유효저수량": "4614.8"
    },
    {
        "name": "gaeum",
        "ko_name": "가음저수지",
        "latitude": "36.2366536",
        "longitude": "128.7456028",
        "위치": "경상북도 의성군 가음면 양지리 산16-1",
        "유효저수량": "4574.1"
    },
    {
        "name": "chupyeong",
        "ko_name": "추평저수지",
        "latitude": "37.12984457",
        "longitude": "127.9374263",
        "위치": "충청북도 충주시 엄정면 추평리 산19-9",
        "유효저수량": "4555"
    },
    {
        "name": "wonchang",
        "ko_name": "원창저수지",
        "latitude": "37.80153971",
        "longitude": "127.7897337",
        "위치": "강원특별자치도 춘천시 동산면 원창리 산30-1",
        "유효저수량": "4553"
    },
    {
        "name": "bonghak",
        "ko_name": "봉학저수지",
        "latitude": "36.08957048",
        "longitude": "128.5118338",
        "위치": "경상북도 성주군 벽진면 봉학리 산95-17",
        "유효저수량": "4515.3"
    },
    {
        "name": "seosang",
        "ko_name": "서상저수지",
        "latitude": "35.71275843",
        "longitude": "127.6828602",
        "위치": "경상남도 함양군 서상면 상남리 산192-1",
        "유효저수량": "4474.9"
    },
    {
        "name": "baegun",
        "ko_name": "백운저수지",
        "latitude": "34.99786823",
        "longitude": "127.5879112",
        "위치": "전라남도 광양시 봉강면 지곡리 121-2",
        "유효저수량": "4428"
    },
    {
        "name": "geochang",
        "ko_name": "거창저수지",
        "latitude": "35.82177306",
        "longitude": "127.8601629",
        "위치": "경상남도 거창군 고제면 농산리 산113-8",
        "유효저수량": "4285"
    },
    {
        "name": "jamgok",
        "ko_name": "잠곡저수지",
        "latitude": "38.1497474",
        "longitude": "127.4647071",
        "위치": "강원특별자치도 철원군 근남면 잠곡리 산99-11",
        "유효저수량": "4279"
    },
    {
        "name": "dogo",
        "ko_name": "도고저수지",
        "latitude": "36.7432663",
        "longitude": "126.9122777",
        "위치": "충청남도 아산시 도고면 신유리 420-5",
        "유효저수량": "4277.7"
    },
    {
        "name": "yangchon",
        "ko_name": "양촌저수지",
        "latitude": "35.25001668",
        "longitude": "128.4661316",
        "위치": "전라남도 해남군 삼산면 평활리 산148-6",
        "유효저수량": "4275.3"
    },
    {
        "name": "obong",
        "ko_name": "오봉저수지",
        "latitude": "37.69553849",
        "longitude": "128.8170514",
        "위치": "전북특별자치도 임실군 성수면 오봉리 산37-5",
        "유효저수량": "4230"
    },
    {
        "name": "geumpung",
        "ko_name": "금풍저수지",
        "latitude": "35.38398907",
        "longitude": "127.286333",
        "위치": "전북특별자치도 남원시 주생면 도산리 산26-18",
        "유효저수량": "4181"
    },
    {
        "name": "giljeong",
        "ko_name": "길정저수지",
        "latitude": "37.64959742",
        "longitude": "126.4749766",
        "위치": "인천광역시 강화군 양도면 길정리 786",
        "유효저수량": "4180"
    },
    {
        "name": "euncheon",
        "ko_name": "은천저수지",
        "latitude": "36.11005704",
        "longitude": "129.1521889",
        "위치": "경상북도 포항시 북구 기계면 구지리 35-3",
        "유효저수량": "4104.7"
    },
    {
        "name": "murya",
        "ko_name": "물야저수지",
        "latitude": "37.00493685",
        "longitude": "128.7300237",
        "위치": "경상북도 봉화군 물야면 오전리 산73-1",
        "유효저수량": "4061"
    },
    {
        "name": "gwanghye",
        "ko_name": "광혜저수지",
        "latitude": "37.00811584",
        "longitude": "127.4271082",
        "위치": "경기도 안성시 죽산면 두교리 산69-2",
        "유효저수량": "4025"
    },
    {
        "name": "jukjeon",
        "ko_name": "죽전저수지",
        "latitude": "35.36376741",
        "longitude": "128.1349982",
        "위치": "경상남도 합천군 가야면 대전리 산40-1",
        "유효저수량": "3986.7"
    },
    {
        "name": "oeo",
        "ko_name": "오어저수지",
        "latitude": "35.92281725",
        "longitude": "129.3738605",
        "위치": "경상북도 포항시 남구 오천읍 항사리 산21-3",
        "유효저수량": "3968"
    },
    {
        "name": "miryong",
        "ko_name": "미룡저수지",
        "latitude": "34.93072914",
        "longitude": "128.2846404",
        "위치": "전북특별자치도 군산시 미룡동 산242-9",
        "유효저수량": "3950"
    },
    {
        "name": "obong",
        "ko_name": "오봉저수지",
        "latitude": "37.69553849",
        "longitude": "128.8170514",
        "위치": "경상북도 김천시 남면 오봉리 산29-1",
        "유효저수량": "3832.4"
    },
    {
        "name": "dansan",
        "ko_name": "단산저수지",
        "latitude": "36.97220231",
        "longitude": "128.6042327",
        "위치": "경상북도 영주시 단산면 옥대리 산15-2",
        "유효저수량": "3807.4"
    },
    {
        "name": "dorim",
        "ko_name": "도림저수지",
        "latitude": "34.90467469",
        "longitude": "126.4348985",
        "위치": "충청남도 청양군 장평면 적곡리 22-1",
        "유효저수량": "3776"
    },
    {
        "name": "manun",
        "ko_name": "만운저수지",
        "latitude": "36.60141186",
        "longitude": "128.5748932",
        "위치": "경상북도 안동시 풍산읍 만운리 산69-2",
        "유효저수량": "3593.9"
    },
    {
        "name": "yulchi",
        "ko_name": "율치저수지",
        "latitude": "34.70419227",
        "longitude": "126.6404392",
        "위치": "전라남도 영암군 학산면 상월리 산152-4",
        "유효저수량": "3551"
    },
    {
        "name": "songrim",
        "ko_name": "송림저수지",
        "latitude": "36.2704962",
        "longitude": "128.9484776",
        "위치": "경상북도 경산시 용성면 송림리 산25-1",
        "유효저수량": "3488"
    },
    {
        "name": "ibam",
        "ko_name": "입암저수지",
        "latitude": "34.58362395",
        "longitude": "127.2647972",
        "위치": "전북특별자치도 정읍시 입암면 천원리 367-2",
        "유효저수량": "3481.7"
    },
    {
        "name": "hwajang",
        "ko_name": "화장저수지",
        "latitude": "36.29602929",
        "longitude": "129.1609026",
        "위치": "경상북도 청송군 부남면 화장리 363",
        "유효저수량": "3403.5"
    },
    {
        "name": "yonggye",
        "ko_name": "용계저수지",
        "latitude": "36.62364192",
        "longitude": "128.8045698",
        "위치": "충청북도 음성군 금왕읍 용계리 산2-1",
        "유효저수량": "3399"
    },
    {
        "name": "yugye",
        "ko_name": "유계저수지",
        "latitude": "35.54288667",
        "longitude": "128.2461653",
        "위치": "경상북도 포항시 북구 청하면 유계리 산10-1",
        "유효저수량": "3391"
    },
    {
        "name": "gasan",
        "ko_name": "가산저수지",
        "latitude": "35.54104469",
        "longitude": "128.7005835",
        "위치": "경상남도 밀양시 부북면 대항리 1171",
        "유효저수량": "3383.2"
    },
    {
        "name": "baeksan",
        "ko_name": "백산저수지",
        "latitude": "35.84565333",
        "longitude": "126.8954724",
        "위치": "전북특별자치도 김제시 백산면 하정리 산7-2",
        "유효저수량": "3381.3"
    },
    {
        "name": "jongcheon",
        "ko_name": "종천저수지",
        "latitude": "36.11380813",
        "longitude": "126.6576422",
        "위치": "충청남도 서천군 종천면 신검리 산3-3",
        "유효저수량": "3353"
    },
    {
        "name": "sindeok",
        "ko_name": "신덕저수지",
        "latitude": "34.6674033",
        "longitude": "126.3115647",
        "위치": "전라남도 해남군 화원면 신덕리 산11-1",
        "유효저수량": "3339.9"
    },
    {
        "name": "maji",
        "ko_name": "마지저수지",
        "latitude": "35.28044052",
        "longitude": "129.1719361",
        "위치": "경기도 파주시 법원읍 직천리 산14-2",
        "유효저수량": "3322"
    },
    {
        "name": "sansu",
        "ko_name": "산수저수지",
        "latitude": "34.88007473",
        "longitude": "127.547041",
        "위치": "충청남도 서산시 해미면 산수리 248-11",
        "유효저수량": "3315.8"
    },
    {
        "name": "geumseok",
        "ko_name": "금석저수지",
        "latitude": "36.99047682",
        "longitude": "127.613634",
        "위치": "충청북도 음성군 금왕읍 금석리 산30-4",
        "유효저수량": "3309"
    },
    {
        "name": "daeseong",
        "ko_name": "대성저수지",
        "latitude": "37.17217717",
        "longitude": "126.8660564",
        "위치": "경상북도 구미시 선기동 산52-2",
        "유효저수량": "3301.6"
    },
    {
        "name": "sinrim",
        "ko_name": "신림저수지",
        "latitude": "35.46917939",
        "longitude": "126.7138426",
        "위치": "전북특별자치도 고창군 신림면 자포리 산17-10",
        "유효저수량": "3274"
    },
    {
        "name": "gwangam",
        "ko_name": "광암저수지",
        "latitude": "35.40139694",
        "longitude": "126.7556601",
        "위치": "전라남도 곡성군 옥과면 합강리 산100-1",
        "유효저수량": "3255"
    },
    {
        "name": "okjong",
        "ko_name": "옥종저수지",
        "latitude": "35.20244914",
        "longitude": "127.8240255",
        "위치": "경상남도 하동군 옥종면 궁항리 산74-4",
        "유효저수량": "3251.4"
    },
    {
        "name": "uiryeong",
        "ko_name": "의령저수지",
        "latitude": "35.36232156",
        "longitude": "128.2566609",
        "위치": "경상남도 의령군 용덕면 가미리 산72-7",
        "유효저수량": "3232.3"
    },
    {
        "name": "sinsong",
        "ko_name": "신송저수지",
        "latitude": "34.63839229",
        "longitude": "127.2898247",
        "위치": "충청남도 서산시 고북면 신송리 519-13",
        "유효저수량": "3220"
    },
    {
        "name": "guryong",
        "ko_name": "구룡저수지",
        "latitude": "35.48676292",
        "longitude": "127.7101783",
        "위치": "경상남도 사천시 사남면 우천리 산4-4",
        "유효저수량": "3206"
    },
    {
        "name": "pyeongam",
        "ko_name": "평암저수지",
        "latitude": "35.15020556",
        "longitude": "128.3856513",
        "위치": "경상남도 창원시 마산합포구 진전면 평암리 산478-9",
        "유효저수량": "3197.9"
    },
    {
        "name": "ungyang",
        "ko_name": "웅양저수지",
        "latitude": "35.83068887",
        "longitude": "127.9310003",
        "위치": "경상남도 거창군 웅양면 산포리 산265-1",
        "유효저수량": "3185"
    },
    {
        "name": "seokmun",
        "ko_name": "석문저수지",
        "latitude": "35.13134801",
        "longitude": "126.6855571",
        "위치": "전라남도 강진군 도암면 봉황리 산9-4",
        "유효저수량": "3183"
    },
    {
        "name": "imgo",
        "ko_name": "임고저수지",
        "latitude": "36.04538992",
        "longitude": "129.0671521",
        "위치": "경상북도 영천시 임고면 사리 산160-7",
        "유효저수량": "3179.5"
    },
    {
        "name": "maewol",
        "ko_name": "매월저수지",
        "latitude": "35.28163346",
        "longitude": "127.2025585",
        "위치": "전라남도 곡성군 입면 매월리 산53-7",
        "유효저수량": "3176"
    },
    {
        "name": "chudong",
        "ko_name": "추동저수지",
        "latitude": "34.84767216",
        "longitude": "127.0360624",
        "위치": "전라남도 보성군 벌교읍 추동리 1008-4",
        "유효저수량": "3155.3"
    },
    {
        "name": "simgok",
        "ko_name": "심곡저수지",
        "latitude": "37.92166369",
        "longitude": "127.170921",
        "위치": "경상북도 경주시 서면 심곡리 283",
        "유효저수량": "3124"
    },
    {
        "name": "hyogok",
        "ko_name": "효곡저수지",
        "latitude": "35.13143018",
        "longitude": "127.5412208",
        "위치": "전라남도 구례군 간전면 금산리 334-1",
        "유효저수량": "3120.3"
    },
    {
        "name": "imcheon",
        "ko_name": "임천저수지",
        "latitude": "34.61219565",
        "longitude": "126.7448314",
        "위치": "전라남도 강진군 강진읍 임천리 443-2",
        "유효저수량": "3093.6"
    },
    {
        "name": "seongam",
        "ko_name": "성암저수지",
        "latitude": "34.97450572",
        "longitude": "126.487681",
        "위치": "충청남도 서산시 음암면 부장리 8-2",
        "유효저수량": "3073.7"
    },
    {
        "name": "yongyeon",
        "ko_name": "용연저수지",
        "latitude": "35.65963022",
        "longitude": "128.4357709",
        "위치": "충청남도 천안시 동남구 목천읍 교촌리 108-30",
        "유효저수량": "3049.8"
    },
    {
        "name": "okgye",
        "ko_name": "옥계저수지",
        "latitude": "37.61862674",
        "longitude": "128.9839106",
        "위치": "충청남도 예산군 덕산면 옥계리 산7-7",
        "유효저수량": "3013.7"
    },
    {
        "name": "dowon",
        "ko_name": "도원저수지",
        "latitude": "38.26899727",
        "longitude": "128.4823453",
        "위치": "강원특별자치도 고성군 토성면 도원리 산169",
        "유효저수량": "2947.6"
    },
    {
        "name": "geumbong",
        "ko_name": "금봉저수지",
        "latitude": "36.93371767",
        "longitude": "128.7876294",
        "위치": "경상북도 봉화군 봉성면 금봉리 산109-11",
        "유효저수량": "2933.2"
    },
    {
        "name": "yongseol",
        "ko_name": "용설저수지",
        "latitude": "37.05554017",
        "longitude": "127.4445745",
        "위치": "경기도 안성시 죽산면 용설리 산24-3",
        "유효저수량": "2932.4"
    },
    {
        "name": "jukgye",
        "ko_name": "죽계저수지",
        "latitude": "35.52457277",
        "longitude": "127.2383919",
        "위치": "전북특별자치도 임실군 삼계면 죽계리 산20-1",
        "유효저수량": "2828"
    },
    {
        "name": "bangdong",
        "ko_name": "방동저수지",
        "latitude": "35.37474217",
        "longitude": "127.9971982",
        "위치": "대전광역시 서구 봉곡동 산1-14",
        "유효저수량": "2820.5"
    },
    {
        "name": "bangye",
        "ko_name": "반계저수지",
        "latitude": "37.29387457",
        "longitude": "127.7731839",
        "위치": "강원특별자치도 원주시 문막읍 반계리 산52-11",
        "유효저수량": "2815"
    },
    {
        "name": "samgi",
        "ko_name": "삼기저수지",
        "latitude": "36.71855669",
        "longitude": "127.6242485",
        "위치": "충청북도 증평군 증평읍 율리 산80-3",
        "유효저수량": "2811.2"
    },
    {
        "name": "yonggye",
        "ko_name": "용계저수지",
        "latitude": "36.62364192",
        "longitude": "128.8045698",
        "위치": "경상북도 영천시 화남면 용계리 산123-7",
        "유효저수량": "2808"
    },
    {
        "name": "giryong",
        "ko_name": "길용저수지",
        "latitude": "35.31569575",
        "longitude": "126.4246349",
        "위치": "전라남도 영광군 백수읍 길용리 산104-4",
        "유효저수량": "2804"
    },
    {
        "name": "mugeuk",
        "ko_name": "무극저수지",
        "latitude": "36.97440568",
        "longitude": "127.6165118",
        "위치": "충청북도 음성군 음성읍 사정리 산150-13",
        "유효저수량": "2791"
    },
    {
        "name": "injeong",
        "ko_name": "인정저수지",
        "latitude": "38.31025221",
        "longitude": "128.4265697",
        "위치": "강원특별자치도 고성군 간성읍 선유실리 산10-1",
        "유효저수량": "2765"
    },
    {
        "name": "changpyeong",
        "ko_name": "창평저수지",
        "latitude": "36.92188267",
        "longitude": "128.8177356",
        "위치": "경상북도 봉화군 봉성면 창평리 산17-8",
        "유효저수량": "2733.2"
    },
    {
        "name": "hwajeong",
        "ko_name": "화정저수지",
        "latitude": "34.91050966",
        "longitude": "126.5345553",
        "위치": "전북특별자치도 완주군 고산면 양야리 산96-6",
        "유효저수량": "2732"
    },
    {
        "name": "sacheon",
        "ko_name": "사천저수지",
        "latitude": "37.78464186",
        "longitude": "128.789692",
        "위치": "전라남도 진도군 의신면 침계리 산52-3",
        "유효저수량": "2722"
    },
    {
        "name": "yeonji",
        "ko_name": "연지저수지",
        "latitude": "35.45463414",
        "longitude": "128.52814",
        "위치": "전라남도 장흥군 대덕읍 연지리 산101-2",
        "유효저수량": "2708"
    },
    {
        "name": "janggye",
        "ko_name": "장계저수지",
        "latitude": "37.04178399",
        "longitude": "127.4071385",
        "위치": "경상남도 합천군 합천읍 장계리 산27-4",
        "유효저수량": "2681.2"
    },
    {
        "name": "jungheung",
        "ko_name": "중흥저수지",
        "latitude": "36.57266291",
        "longitude": "127.172272",
        "위치": "충청남도 공주시 의당면 중흥리 377-2",
        "유효저수량": "2679.6"
    },
    {
        "name": "songgang",
        "ko_name": "송강저수지",
        "latitude": "34.38377695",
        "longitude": "126.1914635",
        "위치": "강원특별자치도 고성군 거진읍 냉천리 산2-14",
        "유효저수량": "2669"
    },
    {
        "name": "unam",
        "ko_name": "운암저수지",
        "latitude": "34.74565914",
        "longitude": "127.8829182",
        "위치": "경상북도 예천군 용문면 내지리 591",
        "유효저수량": "2647.1"
    },
    {
        "name": "majang",
        "ko_name": "마장저수지",
        "latitude": "35.44644965",
        "longitude": "128.2776962",
        "위치": "경기도 파주시 광탄면 기산리 산139-13",
        "유효저수량": "2637"
    },
    {
        "name": "cheonggye",
        "ko_name": "청계저수지",
        "latitude": "35.47324714",
        "longitude": "128.2124225",
        "위치": "경상남도 산청군 단성면 청계리 175-2",
        "유효저수량": "2627"
    },
    {
        "name": "pungjeon",
        "ko_name": "풍전저수지",
        "latitude": "36.77857062",
        "longitude": "126.4235336",
        "위치": "충청남도 서산시 인지면 풍전리 230-4",
        "유효저수량": "2621.2"
    },
    {
        "name": "hai",
        "ko_name": "하이저수지",
        "latitude": "34.94868117",
        "longitude": "128.1392081",
        "위치": "경상남도 고성군 하이면 와룡리 산138-2",
        "유효저수량": "2593.9"
    },
    {
        "name": "seosan",
        "ko_name": "서산저수지",
        "latitude": "35.29195994",
        "longitude": "128.3754738",
        "위치": "전라남도 강진군 강진읍 서산리 산249-4",
        "유효저수량": "2592"
    },
    {
        "name": "oknyeo",
        "ko_name": "옥녀저수지",
        "latitude": "35.94751773",
        "longitude": "126.6274438",
        "위치": "전북특별자치도 군산시 개사동 1217",
        "유효저수량": "2577.8"
    },
    {
        "name": "yeongcheon",
        "ko_name": "영천저수지",
        "latitude": "34.69462665",
        "longitude": "127.0787298",
        "위치": "전라남도 보성군 회천면 영천리 508-13",
        "유효저수량": "2575.8"
    },
    {
        "name": "masan",
        "ko_name": "마산저수지",
        "latitude": "35.59379216",
        "longitude": "127.771233",
        "위치": "충청남도 아산시 득산동 16-4",
        "유효저수량": "2559.8"
    },
    {
        "name": "maehwa",
        "ko_name": "매화저수지",
        "latitude": "37.40040443",
        "longitude": "126.8273226",
        "위치": "경상북도 울진군 매화면 기양리",
        "유효저수량": "2554.1"
    },
    {
        "name": "sudong",
        "ko_name": "수동저수지",
        "latitude": "36.40279767",
        "longitude": "128.4205428",
        "위치": "전라남도 장흥군 관산읍 외동리 667-5",
        "유효저수량": "2550.5"
    },
    {
        "name": "gusi",
        "ko_name": "구시저수지",
        "latitude": "34.48855",
        "longitude": "126.5556339",
        "위치": "전라남도 해남군 현산면 구시리 산229-2",
        "유효저수량": "2549.3"
    },
    {
        "name": "gungyu",
        "ko_name": "궁유저수지",
        "latitude": "35.4302395",
        "longitude": "128.2152804",
        "위치": "경상남도 의령군 궁류면 벽계리 산6-1",
        "유효저수량": "2514.5"
    },
    {
        "name": "cheonggi",
        "ko_name": "청기저수지",
        "latitude": "36.78964172",
        "longitude": "129.0664675",
        "위치": "경상북도 영양군 청기면 당리 16",
        "유효저수량": "2477"
    },
    {
        "name": "bongseong",
        "ko_name": "봉성저수지",
        "latitude": "35.20725541",
        "longitude": "128.4292014",
        "위치": "경상남도 함안군 함안면 강명리 산88",
        "유효저수량": "2470"
    },
    {
        "name": "jeongan",
        "ko_name": "정안저수지",
        "latitude": "36.37156117",
        "longitude": "127.9603503",
        "위치": "충청남도 공주시 정안면 고성리 산1-4",
        "유효저수량": "2460.1"
    },
    {
        "name": "mukgye",
        "ko_name": "묵계저수지",
        "latitude": "35.22465493",
        "longitude": "127.7386376",
        "위치": "경상남도 하동군 청암면 묵계리 산71-13",
        "유효저수량": "2458"
    },
    {
        "name": "yongsan",
        "ko_name": "용산저수지",
        "latitude": "37.94459567",
        "longitude": "127.7189131",
        "위치": "전북특별자치도 정읍시 용산동 산113-2",
        "유효저수량": "2439"
    },
    {
        "name": "onam",
        "ko_name": "오남저수지",
        "latitude": "37.69523555",
        "longitude": "127.2223881",
        "위치": "경기도 남양주시 오남읍 오남리 산58",
        "유효저수량": "2435.1"
    },
    {
        "name": "gosi",
        "ko_name": "고시저수지",
        "latitude": "34.9469679",
        "longitude": "127.0699386",
        "위치": "전라남도 화순군 한천면 고시리 산88-1",
        "유효저수량": "2426.7"
    },
    {
        "name": "oseong",
        "ko_name": "오성저수지",
        "latitude": "35.06063446",
        "longitude": "127.0122456",
        "위치": "전북특별자치도 정읍시 옹동면 상산리 산168-1",
        "유효저수량": "2413.1"
    },
    {
        "name": "oksan",
        "ko_name": "옥산저수지",
        "latitude": "35.59503223",
        "longitude": "128.4014563",
        "위치": "충청남도 부여군 옥산면 안서리 366-30",
        "유효저수량": "2413"
    },
    {
        "name": "manbong",
        "ko_name": "만봉저수지",
        "latitude": "34.91015332",
        "longitude": "126.7734493",
        "위치": "전라남도 나주시 봉황면 만봉리 412-1",
        "유효저수량": "2408"
    },
    {
        "name": "daejeong",
        "ko_name": "대정저수지",
        "latitude": "35.41299144",
        "longitude": "126.507179",
        "위치": "전북특별자치도 고창군 공음면 두암리 산247-2",
        "유효저수량": "2360"
    },
    {
        "name": "sunheung",
        "ko_name": "순흥저수지",
        "latitude": "36.93081526",
        "longitude": "128.5628088",
        "위치": "경상북도 영주시 순흥면 내죽리 산19-2",
        "유효저수량": "2352.1"
    },
    {
        "name": "naesan",
        "ko_name": "내산저수지",
        "latitude": "34.7612667",
        "longitude": "128.0155338",
        "위치": "경상남도 남해군 삼동면 봉화리 2020",
        "유효저수량": "2337.8"
    },
    {
        "name": "daeryong",
        "ko_name": "대룡저수지",
        "latitude": "37.74441065",
        "longitude": "127.8703513",
        "위치": "전라남도 순천시 별량면 죽산리 산1-5",
        "유효저수량": "2305.3"
    },
    {
        "name": "yulhyeon",
        "ko_name": "율현저수지",
        "latitude": "35.42127276",
        "longitude": "127.9719754",
        "위치": "경상남도 산청군 신등면 율현리 산21-3",
        "유효저수량": "2294.1"
    },
    {
        "name": "unju",
        "ko_name": "운주저수지",
        "latitude": "34.60623341",
        "longitude": "126.8819388",
        "위치": "전라남도 장흥군 용산면 운주리 742",
        "유효저수량": "2286.8"
    },
    {
        "name": "bongsan",
        "ko_name": "봉산저수지",
        "latitude": "35.45605837",
        "longitude": "128.5051315",
        "위치": "경상남도 창녕군 계성면 봉산리 1639-27",
        "유효저수량": "2280.2"
    },
    {
        "name": "jungsan",
        "ko_name": "중산저수지",
        "latitude": "34.8380308",
        "longitude": "127.5622708",
        "위치": "충청북도 충주시 수안보면 중산리 산55-9",
        "유효저수량": "2270"
    },
    {
        "name": "wangdong",
        "ko_name": "왕동저수지",
        "latitude": "35.19571705",
        "longitude": "126.7140485",
        "위치": "광주광역시 광산구 왕동 산136-13",
        "유효저수량": "2265.4"
    },
    {
        "name": "wolgok",
        "ko_name": "월곡저수지",
        "latitude": "37.13161321",
        "longitude": "127.1846982",
        "위치": "전라남도 강진군 옴천면 월곡리 산67",
        "유효저수량": "2238"
    },
    {
        "name": "hwasangok",
        "ko_name": "화산곡저수지",
        "latitude": "35.95483108",
        "longitude": "129.1771077",
        "위치": "경상북도 경주시 안강읍 두류리 산24",
        "유효저수량": "2234.3"
    },
    {
        "name": "songsan",
        "ko_name": "송산저수지",
        "latitude": "37.21341913",
        "longitude": "127.0145463",
        "위치": "전라남도 함평군 해보면 산내리 산42-6",
        "유효저수량": "2233"
    },
    {
        "name": "saenggok",
        "ko_name": "생곡저수지",
        "latitude": "37.67650687",
        "longitude": "128.2371705",
        "위치": "강원특별자치도 홍천군 서석면 생곡리 산54-8",
        "유효저수량": "2230"
    },
    {
        "name": "munsu",
        "ko_name": "문수저수지",
        "latitude": "35.21419718",
        "longitude": "127.5215796",
        "위치": "전라남도 구례군 토지면 구산리 486-1",
        "유효저수량": "2227.9"
    },
    {
        "name": "wolnam",
        "ko_name": "월남저수지",
        "latitude": "34.73233974",
        "longitude": "126.7223656",
        "위치": "전라남도 강진군 성전면 월남리 산264-3",
        "유효저수량": "2225"
    },
    {
        "name": "gusan",
        "ko_name": "구산저수지",
        "latitude": "35.22742874",
        "longitude": "126.4340719",
        "위치": "전라남도 해남군 현산면 황산리 산6-5",
        "유효저수량": "2217.3"
    },
    {
        "name": "bongrim",
        "ko_name": "봉림저수지",
        "latitude": "34.47103196",
        "longitude": "126.5769827",
        "위치": "충청남도 예산군 봉산면 사석리 316-6",
        "유효저수량": "2216.5"
    },
    {
        "name": "cheongrim",
        "ko_name": "청림저수지",
        "latitude": "36.15253462",
        "longitude": "127.3355686",
        "위치": "전북특별자치도 부안군 상서면 청림리 산135-2",
        "유효저수량": "2213"
    },
    {
        "name": "gungsan",
        "ko_name": "궁산저수지",
        "latitude": "35.48245087",
        "longitude": "126.5258681",
        "위치": "전북특별자치도 고창군 해리면 금평리 1335-4",
        "유효저수량": "2210"
    },
    {
        "name": "chupungryeong",
        "ko_name": "추풍령저수지",
        "latitude": "36.22093717",
        "longitude": "128.0297398",
        "위치": "충청북도 영동군 추풍령면 추풍령리 산18-12",
        "유효저수량": "2205"
    },
    {
        "name": "wolcheon",
        "ko_name": "월천저수지",
        "latitude": "35.14579679",
        "longitude": "126.407556",
        "위치": "전라남도 함평군 손불면 월천리 1173",
        "유효저수량": "2203.8"
    },
    {
        "name": "janghyeon",
        "ko_name": "장현저수지",
        "latitude": "37.72768033",
        "longitude": "128.8921395",
        "위치": "강원특별자치도 강릉시 장현동 산20-1",
        "유효저수량": "2176"
    },
    {
        "name": "dochon",
        "ko_name": "도촌저수지",
        "latitude": "34.73198808",
        "longitude": "127.1562798",
        "위치": "전라남도 보성군 득량면 도촌리 산133",
        "유효저수량": "2168.5"
    },
    {
        "name": "gicheon",
        "ko_name": "기천저수지",
        "latitude": "37.17211328",
        "longitude": "126.9117747",
        "위치": "경기도 화성시 팔탄면 기천리 산1-3",
        "유효저수량": "2163.6"
    },
    {
        "name": "deoksan",
        "ko_name": "덕산저수지",
        "latitude": "37.07711742",
        "longitude": "127.3641487",
        "위치": "전라남도 보성군 득량면 예당리 1058-2",
        "유효저수량": "2140.7"
    },
    {
        "name": "oksan",
        "ko_name": "옥산저수지",
        "latitude": "35.59503223",
        "longitude": "128.4014563",
        "위치": "경상북도 경주시 안강읍 옥산리 산62-16",
        "유효저수량": "2139"
    },
    {
        "name": "okgok",
        "ko_name": "옥곡저수지",
        "latitude": "35.99370072",
        "longitude": "126.8251454",
        "위치": "전북특별자치도 군산시 성산면 대명리 263-2",
        "유효저수량": "2114"
    },
    {
        "name": "sacheon",
        "ko_name": "사천저수지",
        "latitude": "37.78464186",
        "longitude": "128.789692",
        "위치": "강원특별자치도 강릉시 사천면 사기막리 산180-5",
        "유효저수량": "2106.6"
    },
    {
        "name": "jinrye",
        "ko_name": "진례저수지",
        "latitude": "35.22580163",
        "longitude": "128.7370778",
        "위치": "경상남도 김해시 진례면 신안리 산98-3",
        "유효저수량": "2095"
    },
    {
        "name": "guman",
        "ko_name": "구만저수지",
        "latitude": "35.62175425",
        "longitude": "128.6459322",
        "위치": "전라남도 구례군 광의면 구만리 16-1",
        "유효저수량": "2088"
    },
    {
        "name": "goemok",
        "ko_name": "괴목저수지",
        "latitude": "35.9193797",
        "longitude": "127.717853",
        "위치": "전북특별자치도 무주군 적상면 괴목리 산120-23",
        "유효저수량": "2083"
    },
    {
        "name": "songmyeon",
        "ko_name": "송면저수지",
        "latitude": "36.62669452",
        "longitude": "127.907547",
        "위치": "경상북도 상주시 화북면 입석리 산1-16",
        "유효저수량": "2078.4"
    },
    {
        "name": "dansan",
        "ko_name": "단산저수지",
        "latitude": "36.97220231",
        "longitude": "128.6042327",
        "위치": "대구광역시 동구 봉무동 517-1",
        "유효저수량": "2072"
    },
    {
        "name": "gohyeon",
        "ko_name": "고현저수지",
        "latitude": "37.13467535",
        "longitude": "127.094142",
        "위치": "경상북도 청송군 진보면 고현리 140",
        "유효저수량": "2068.7"
    },
    {
        "name": "childong",
        "ko_name": "칠동저수지",
        "latitude": "34.83803154",
        "longitude": "127.2493953",
        "위치": "전라남도 보성군 벌교읍 옥전리 산71-7",
        "유효저수량": "2059.5"
    },
    {
        "name": "hongyang",
        "ko_name": "홍양저수지",
        "latitude": "36.58879223",
        "longitude": "126.7079753",
        "위치": "충청남도 홍성군 홍성읍 구룡리 83-6",
        "유효저수량": "2057.4"
    },
    {
        "name": "bangsan",
        "ko_name": "방산저수지",
        "latitude": "34.45197882",
        "longitude": "126.7016126",
        "위치": "충청남도 예산군 대술면 방산리 산18-1",
        "유효저수량": "2054"
    },
    {
        "name": "seongjeon",
        "ko_name": "성전저수지",
        "latitude": "34.73449091",
        "longitude": "126.6786431",
        "위치": "전라남도 강진군 성전면 월하리 산162-3",
        "유효저수량": "2048.1"
    },
    {
        "name": "yonghwa",
        "ko_name": "용화저수지",
        "latitude": "38.13355348",
        "longitude": "127.3464484",
        "위치": "강원특별자치도 철원군 갈말읍 신철원리 189-1",
        "유효저수량": "2019"
    },
    {
        "name": "seoam",
        "ko_name": "서암저수지",
        "latitude": "35.3672699",
        "longitude": "128.2426577",
        "위치": "경상남도 의령군 가례면 괴진리 산19-6",
        "유효저수량": "2002.2"
    },
    {
        "name": "jangcheok",
        "ko_name": "장척저수지",
        "latitude": "35.43408263",
        "longitude": "128.4934113",
        "위치": "경상남도 창녕군 영산면 봉암리 209-2",
        "유효저수량": "2000.4"
    },
    {
        "name": "jicheon",
        "ko_name": "지천저수지",
        "latitude": "35.96928199",
        "longitude": "128.4874221",
        "위치": "경상북도 칠곡군 지천면 창평리 620-3",
        "유효저수량": "1978"
    },
    {
        "name": "galpyeong",
        "ko_name": "갈평저수지",
        "latitude": "36.47209308",
        "longitude": "129.1339864",
        "위치": "경상북도 청송군 진보면 괴정리 288",
        "유효저수량": "1963.2"
    },
    {
        "name": "songseon",
        "ko_name": "송선저수지",
        "latitude": "35.8232126",
        "longitude": "129.0747322",
        "위치": "경상북도 경주시 건천읍 송선리 893-1",
        "유효저수량": "1962.2"
    },
    {
        "name": "hwamae",
        "ko_name": "화매저수지",
        "latitude": "36.52229104",
        "longitude": "129.1868355",
        "위치": "경상북도 영양군 석보면 화매리 631-1",
        "유효저수량": "1959"
    },
    {
        "name": "yongseong",
        "ko_name": "용성저수지",
        "latitude": "35.10135809",
        "longitude": "126.5290122",
        "위치": "경상북도 경산시 용성면 송림리 산25-3",
        "유효저수량": "1943"
    },
    {
        "name": "sosu",
        "ko_name": "소수저수지",
        "latitude": "36.87157305",
        "longitude": "127.7164649",
        "위치": "충청북도 괴산군 소수면 길선리 182-2",
        "유효저수량": "1942"
    },
    {
        "name": "wanggung",
        "ko_name": "왕궁저수지",
        "latitude": "35.9968785",
        "longitude": "127.1024649",
        "위치": "전북특별자치도 익산시 왕궁면 동용리 산71-4",
        "유효저수량": "1941"
    },
    {
        "name": "bogan",
        "ko_name": "복안저수지",
        "latitude": "35.68921891",
        "longitude": "129.1497494",
        "위치": "울산광역시 울주군 두서면 미호리 산162-1",
        "유효저수량": "1934.5"
    },
    {
        "name": "daega",
        "ko_name": "대가저수지",
        "latitude": "34.99932474",
        "longitude": "128.3079443",
        "위치": "전북특별자치도 순창군 복흥면 봉덕리 산99-107",
        "유효저수량": "1930"
    },
    {
        "name": "sanjeong",
        "ko_name": "산정저수지",
        "latitude": "37.08623007",
        "longitude": "127.2037131",
        "위치": "경기도 포천시 영북면 산정리 192-3",
        "유효저수량": "1921.9"
    },
    {
        "name": "ipseok",
        "ko_name": "입석저수지",
        "latitude": "35.13767457",
        "longitude": "126.3351657",
        "위치": "전라남도 영암군 금정면 남송리 산356-2",
        "유효저수량": "1913.9"
    },
    {
        "name": "jangyeon",
        "ko_name": "장연저수지",
        "latitude": "36.35576918",
        "longitude": "127.7673664",
        "위치": "충청북도 옥천군 청성면 장연리 산55-2",
        "유효저수량": "1906"
    },
    {
        "name": "oro",
        "ko_name": "오로저수지",
        "latitude": "36.17783888",
        "longitude": "128.530721",
        "위치": "경상북도 구미시 장천면 오로리 산24-1",
        "유효저수량": "1890"
    },
    {
        "name": "bakdal",
        "ko_name": "박달저수지",
        "latitude": "35.73896239",
        "longitude": "129.1134095",
        "위치": "경상북도 경주시 내남면 박달리 산830-2",
        "유효저수량": "1890"
    },
    {
        "name": "daeya",
        "ko_name": "대야저수지",
        "latitude": "35.1456343",
        "longitude": "126.676034",
        "위치": "충청남도 태안군 고남면 누동리 1139-27",
        "유효저수량": "1883.8"
    },
    {
        "name": "sindong",
        "ko_name": "신동저수지",
        "latitude": "34.38092388",
        "longitude": "126.1998589",
        "위치": "충청남도 금산군 남일면 신동리 382-7",
        "유효저수량": "1880.8"
    },
    {
        "name": "oedong",
        "ko_name": "외동저수지",
        "latitude": "35.42690213",
        "longitude": "129.2136413",
        "위치": "전라남도 담양군 가사문학면 풍암리 산64-8",
        "유효저수량": "1873.6"
    },
    {
        "name": "gaesim",
        "ko_name": "개심저수지",
        "latitude": "36.19732442",
        "longitude": "127.6306435",
        "위치": "충청북도 옥천군 이원면 개심리 483-3",
        "유효저수량": "1861"
    },
    {
        "name": "deoksan",
        "ko_name": "덕산저수지",
        "latitude": "37.07711742",
        "longitude": "127.3641487",
        "위치": "경기도 안성시 삼죽면 내강리 산31-7",
        "유효저수량": "1859.2"
    },
    {
        "name": "doam",
        "ko_name": "도암저수지",
        "latitude": "34.9165189",
        "longitude": "126.8987903",
        "위치": "전라남도 화순군 도암면 등광리 산102",
        "유효저수량": "1854"
    },
    {
        "name": "haepyeong",
        "ko_name": "해평저수지",
        "latitude": "35.96516206",
        "longitude": "128.0965926",
        "위치": "전라남도 보성군 득량면 해평리 산89-4",
        "유효저수량": "1853"
    },
    {
        "name": "dangji",
        "ko_name": "당지저수지",
        "latitude": "36.06638544",
        "longitude": "128.8383489",
        "위치": "경상북도 영천시 화산면 당지리 산23-10",
        "유효저수량": "1844"
    },
    {
        "name": "wangsin",
        "ko_name": "왕신저수지",
        "latitude": "35.94346283",
        "longitude": "129.2913902",
        "위치": "경상북도 경주시 강동면 왕신리 산87-8",
        "유효저수량": "1839"
    },
    {
        "name": "dongmyeon",
        "ko_name": "동면저수지",
        "latitude": "36.80630788",
        "longitude": "129.0292596",
        "위치": "경상북도 봉화군 재산면 동면리 산208-1",
        "유효저수량": "1835"
    },
    {
        "name": "sasan",
        "ko_name": "사산저수지",
        "latitude": "35.66519193",
        "longitude": "126.6826118",
        "위치": "전북특별자치도 부안군 주산면 사산리 산35-5",
        "유효저수량": "1827"
    },
    {
        "name": "misan",
        "ko_name": "미산저수지",
        "latitude": "37.1314632",
        "longitude": "127.2571421",
        "위치": "경기도 안성시 양성면 미산리 412-1",
        "유효저수량": "1826.2"
    },
    {
        "name": "yonggok",
        "ko_name": "용곡저수지",
        "latitude": "35.88088478",
        "longitude": "129.1128208",
        "위치": "충청북도 청주시 상당구 미원면 용곡리 산6-1",
        "유효저수량": "1813.5"
    },
    {
        "name": "samsan",
        "ko_name": "삼산저수지",
        "latitude": "34.44080323",
        "longitude": "127.0485378",
        "위치": "인천광역시 강화군 삼산면 하리 634-5",
        "유효저수량": "1810"
    },
    {
        "name": "naebong",
        "ko_name": "내봉저수지",
        "latitude": "34.55055366",
        "longitude": "127.200148",
        "위치": "전라남도 고흥군 도덕면 봉덕리 산57-3",
        "유효저수량": "1800"
    },
    {
        "name": "seongyeon",
        "ko_name": "성연저수지",
        "latitude": "36.44346585",
        "longitude": "126.6263622",
        "위치": "충청남도 보령시 청소면 성연리 산77",
        "유효저수량": "1788.9"
    },
    {
        "name": "ssangbong",
        "ko_name": "쌍봉저수지",
        "latitude": "34.88102661",
        "longitude": "127.0509382",
        "위치": "전라남도 화순군 이양면 쌍봉리 산62-6",
        "유효저수량": "1788.8"
    },
    {
        "name": "sinchang",
        "ko_name": "신창저수지",
        "latitude": "36.75115505",
        "longitude": "126.5764437",
        "위치": "충청남도 서산시 운산면 신창리 121-2",
        "유효저수량": "1786.6"
    },
    {
        "name": "buseok",
        "ko_name": "부석저수지",
        "latitude": "36.99411165",
        "longitude": "128.635485",
        "위치": "경상북도 영주시 부석면 소천리 740",
        "유효저수량": "1785.2"
    },
    {
        "name": "changnae",
        "ko_name": "창내저수지",
        "latitude": "35.52401499",
        "longitude": "126.6383861",
        "위치": "전북특별자치도 고창군 부안면 검산리 산47-1",
        "유효저수량": "1780"
    },
    {
        "name": "cheoneun",
        "ko_name": "천은저수지",
        "latitude": "35.26989337",
        "longitude": "127.4734245",
        "위치": "전라남도 구례군 광의면 방광리 산1-35",
        "유효저수량": "1774"
    },
    {
        "name": "bongam",
        "ko_name": "봉암저수지",
        "latitude": "37.91841153",
        "longitude": "126.9974353",
        "위치": "전라남도 고흥군 도덕면 도덕리 2572",
        "유효저수량": "1769"
    },
    {
        "name": "sinyang",
        "ko_name": "신양저수지",
        "latitude": "36.62314026",
        "longitude": "128.5574689",
        "위치": "경상북도 안동시 풍산읍 신양리 산29-11",
        "유효저수량": "1756.7"
    },
    {
        "name": "baekhak",
        "ko_name": "백학저수지",
        "latitude": "36.07296385",
        "longitude": "128.7002084",
        "위치": "경기도 연천군 미산면 아미리 산207-3",
        "유효저수량": "1745.7"
    },
    {
        "name": "jijeong",
        "ko_name": "지정저수지",
        "latitude": "34.56130115",
        "longitude": "126.9792892",
        "위치": "전라남도 장흥군 관산읍 지정리 544-2",
        "유효저수량": "1738.2"
    },
    {
        "name": "baekcheon",
        "ko_name": "백천저수지",
        "latitude": "34.99901171",
        "longitude": "128.0886667",
        "위치": "경상남도 사천시 백천동 산23-4",
        "유효저수량": "1736.5"
    },
    {
        "name": "bujeon",
        "ko_name": "부전저수지",
        "latitude": "35.53075536",
        "longitude": "126.9165356",
        "위치": "전북특별자치도 정읍시 부전동 산148-1",
        "유효저수량": "1732.4"
    },
    {
        "name": "sinwon",
        "ko_name": "신원저수지",
        "latitude": "34.94621823",
        "longitude": "126.7099055",
        "위치": "경상남도 거창군 신원면 덕산리 산191-2",
        "유효저수량": "1722.3"
    },
    {
        "name": "namseong",
        "ko_name": "남성저수지",
        "latitude": "35.27719786",
        "longitude": "128.0492025",
        "위치": "경상남도 진주시 명석면 남성리 산150-2",
        "유효저수량": "1713.2"
    },
    {
        "name": "sangsin",
        "ko_name": "상신저수지",
        "latitude": "34.64488203",
        "longitude": "127.3457446",
        "위치": "경상남도 의령군 유곡면 오목리 산52-2",
        "유효저수량": "1700"
    },
    {
        "name": "gamdon",
        "ko_name": "감돈저수지",
        "latitude": "34.88177302",
        "longitude": "126.4708543",
        "위치": "전라남도 무안군 일로읍 감돈리 산33-2",
        "유효저수량": "1692"
    },
    {
        "name": "nongam",
        "ko_name": "농암저수지",
        "latitude": "36.28246653",
        "longitude": "128.5378175",
        "위치": "경상북도 문경시 농암면 율수리 산79-1",
        "유효저수량": "1680"
    },
    {
        "name": "hwasan",
        "ko_name": "화산저수지",
        "latitude": "37.15197255",
        "longitude": "127.2281419",
        "위치": "충청북도 진천군 이월면 신계리 산24-3",
        "유효저수량": "1676"
    },
    {
        "name": "myeonggye",
        "ko_name": "명계저수지",
        "latitude": "35.72293083",
        "longitude": "129.2452057",
        "위치": "경상북도 경주시 내남면 명계리 산114-8",
        "유효저수량": "1670"
    },
    {
        "name": "changrim",
        "ko_name": "창림저수지",
        "latitude": "36.22274876",
        "longitude": "128.3957333",
        "위치": "경상북도 구미시 해평면 창림리 산58-3",
        "유효저수량": "1649.5"
    },
    {
        "name": "gaeun",
        "ko_name": "개운저수지",
        "latitude": "37.65038012",
        "longitude": "127.9523262",
        "위치": "강원특별자치도 홍천군 영귀미면 후동리 산55-8",
        "유효저수량": "1636"
    },
    {
        "name": "haewon",
        "ko_name": "해원저수지",
        "latitude": "34.37494868",
        "longitude": "126.540864",
        "위치": "전라남도 해남군 송지면 마봉리 1132-27",
        "유효저수량": "1621.5"
    },
    {
        "name": "daeseung",
        "ko_name": "대승저수지",
        "latitude": "35.85966328",
        "longitude": "127.2957675",
        "위치": "경상북도 영천시 금호읍 오계리 산32",
        "유효저수량": "1619"
    },
    {
        "name": "yonggok",
        "ko_name": "용곡저수지",
        "latitude": "35.88088478",
        "longitude": "129.1128208",
        "위치": "경상북도 경주시 건천읍 용명리 산74-2",
        "유효저수량": "1615.1"
    },
    {
        "name": "daeryong",
        "ko_name": "대룡저수지",
        "latitude": "37.74441065",
        "longitude": "127.8703513",
        "위치": "강원특별자치도 홍천군 북방면 성동리 1036-4",
        "유효저수량": "1609"
    },
    {
        "name": "okgye",
        "ko_name": "옥계저수지",
        "latitude": "37.61862674",
        "longitude": "128.9839106",
        "위치": "강원특별자치도 강릉시 옥계면 북동리 산41-1",
        "유효저수량": "1604.4"
    },
    {
        "name": "aedang",
        "ko_name": "애당저수지",
        "latitude": "35.57472219",
        "longitude": "126.8105176",
        "위치": "전북특별자치도 정읍시 소성면 주천리 산23-1",
        "유효저수량": "1587"
    },
    {
        "name": "ansim",
        "ko_name": "안심저수지",
        "latitude": "35.73462862",
        "longitude": "129.1471501",
        "위치": "경상북도 포항시 북구 청하면 명안리 산12-10",
        "유효저수량": "1577.5"
    },
    {
        "name": "chodong",
        "ko_name": "초동저수지",
        "latitude": "35.65912687",
        "longitude": "127.8650372",
        "위치": "경상남도 밀양시 초동면 신호리 395-5",
        "유효저수량": "1568"
    },
    {
        "name": "okcheon",
        "ko_name": "옥천저수지",
        "latitude": "34.86268936",
        "longitude": "127.9951924",
        "위치": "경상남도 창녕군 창녕읍 옥천리 산380-3",
        "유효저수량": "1567.4"
    },
    {
        "name": "duryang",
        "ko_name": "두량저수지",
        "latitude": "35.11401431",
        "longitude": "128.1216731",
        "위치": "경상남도 사천시 사천읍 두량리 1541-2",
        "유효저수량": "1567.3"
    },
    {
        "name": "cheongsang",
        "ko_name": "청상저수지",
        "latitude": "36.32611174",
        "longitude": "128.1492268",
        "위치": "경상북도 상주시 청리면 청하리 산5-5",
        "유효저수량": "1556"
    },
    {
        "name": "hangye",
        "ko_name": "한계저수지",
        "latitude": "36.6045051",
        "longitude": "127.560021",
        "위치": "충청북도 청주시 상당구 가덕면 한계리 산43-14",
        "유효저수량": "1550"
    },
    {
        "name": "deokchon",
        "ko_name": "덕촌저수지",
        "latitude": "34.87944178",
        "longitude": "127.12689",
        "위치": "전라남도 장흥군 대덕읍 가학리 산147-3",
        "유효저수량": "1549.5"
    },
    {
        "name": "gagok",
        "ko_name": "가곡저수지",
        "latitude": "35.01389592",
        "longitude": "128.1595848",
        "위치": "충청남도 홍성군 갈산면 가곡리 130-2",
        "유효저수량": "1542.7"
    },
    {
        "name": "donghae",
        "ko_name": "동해저수지",
        "latitude": "34.44328643",
        "longitude": "126.6393181",
        "위치": "전라남도 해남군 북평면 동해리 산38",
        "유효저수량": "1522.3"
    },
    {
        "name": "hwagok",
        "ko_name": "화곡저수지",
        "latitude": "37.15972747",
        "longitude": "127.1899146",
        "위치": "경상북도 경주시 내남면 화곡리 산240-6",
        "유효저수량": "1521.8"
    },
    {
        "name": "goseo",
        "ko_name": "고서저수지",
        "latitude": "34.75803175",
        "longitude": "125.9040403",
        "위치": "전라남도 신안군 비금면 고서리 산105-5",
        "유효저수량": "1521"
    },
    {
        "name": "seonggok",
        "ko_name": "성곡저수지",
        "latitude": "35.65596247",
        "longitude": "128.5882528",
        "위치": "경상북도 영주시 장수면 갈산리 산61",
        "유효저수량": "1508.1"
    },
    {
        "name": "songdan",
        "ko_name": "송단저수지",
        "latitude": "35.19609762",
        "longitude": "127.1777258",
        "위치": "전라남도 화순군 백아면 방리 산156-3",
        "유효저수량": "1507.5"
    },
    {
        "name": "sinbanwol",
        "ko_name": "신반월저수지",
        "latitude": "35.75055382",
        "longitude": "127.4555849",
        "위치": "전북특별자치도 진안군 진안읍 반월리 산95-6",
        "유효저수량": "1507"
    },
    {
        "name": "yonggok",
        "ko_name": "용곡저수지",
        "latitude": "35.88088478",
        "longitude": "129.1128208",
        "위치": "경상북도 포항시 북구 송라면 방석리 산34-4",
        "유효저수량": "1506.6"
    },
    {
        "name": "sinchon",
        "ko_name": "신촌저수지",
        "latitude": "35.10950781",
        "longitude": "128.0441368",
        "위치": "전라남도 장흥군 안양면 학송리 산39-2",
        "유효저수량": "1503.2"
    },
    {
        "name": "baekma",
        "ko_name": "백마저수지",
        "latitude": "36.83767588",
        "longitude": "127.6569103",
        "위치": "충청북도 제천시 백운면 방학리 산101-30",
        "유효저수량": "1496"
    },
    {
        "name": "banggok",
        "ko_name": "방곡저수지",
        "latitude": "36.85081286",
        "longitude": "127.9178564",
        "위치": "경상남도 산청군 금서면 방곡리 587-2",
        "유효저수량": "1494.3"
    },
    {
        "name": "chukdong",
        "ko_name": "축동저수지",
        "latitude": "35.24451116",
        "longitude": "126.3753111",
        "위치": "충청남도 서천군 한산면 축동리 182",
        "유효저수량": "1490.8"
    },
    {
        "name": "osan",
        "ko_name": "오산저수지",
        "latitude": "35.50164239",
        "longitude": "128.2383763",
        "위치": "전라남도 곡성군 오산면 율천리 산45-2",
        "유효저수량": "1486"
    },
    {
        "name": "jamhong",
        "ko_name": "잠홍저수지",
        "latitude": "36.7934527",
        "longitude": "126.4919726",
        "위치": "충청남도 서산시 잠홍동 335-17",
        "유효저수량": "1485"
    },
    {
        "name": "mojeom",
        "ko_name": "모점저수지",
        "latitude": "37.1557384",
        "longitude": "127.7344781",
        "위치": "충청북도 충주시 앙성면 모점리 산62-6",
        "유효저수량": "1484.6"
    },
    {
        "name": "bongam",
        "ko_name": "봉암저수지",
        "latitude": "37.91841153",
        "longitude": "126.9974353",
        "위치": "전라남도 진도군 지산면 심동리 산8",
        "유효저수량": "1476"
    },
    {
        "name": "wondang",
        "ko_name": "원당저수지",
        "latitude": "37.91814341",
        "longitude": "126.9875856",
        "위치": "경기도 양주시 남면 황방리 438-6",
        "유효저수량": "1475"
    },
    {
        "name": "baekseok",
        "ko_name": "백석저수지",
        "latitude": "36.80269644",
        "longitude": "128.4556441",
        "위치": "전북특별자치도 전주시 덕진구 전미동1가 607-9",
        "유효저수량": "1461"
    },
    {
        "name": "dongmyeong",
        "ko_name": "동명저수지",
        "latitude": "35.98132115",
        "longitude": "128.5644792",
        "위치": "경상북도 칠곡군 동명면 구덕리 582",
        "유효저수량": "1451.3"
    },
    {
        "name": "cheonrak",
        "ko_name": "천락저수지",
        "latitude": "35.49697727",
        "longitude": "128.295851",
        "위치": "경상남도 의령군 봉수면 천락리 397-1",
        "유효저수량": "1450.7"
    },
    {
        "name": "yangji",
        "ko_name": "양지저수지",
        "latitude": "36.36134987",
        "longitude": "127.9135268",
        "위치": "경상북도 상주시 화동면 보미리 산58",
        "유효저수량": "1446"
    },
    {
        "name": "bokgok",
        "ko_name": "복곡저수지",
        "latitude": "34.77434337",
        "longitude": "127.9810984",
        "위치": "경상남도 남해군 이동면 신전리 산116-40",
        "유효저수량": "1439"
    },
    {
        "name": "umok",
        "ko_name": "우목저수지",
        "latitude": "36.44236144",
        "longitude": "127.0078804",
        "위치": "충청남도 공주시 우성면 용봉리 산48-4",
        "유효저수량": "1430.1"
    },
    {
        "name": "wondeung",
        "ko_name": "원등저수지",
        "latitude": "35.23987553",
        "longitude": "127.2136157",
        "위치": "전라남도 고흥군 동강면 마륜리 산68-1",
        "유효저수량": "1417"
    },
    {
        "name": "songseok",
        "ko_name": "송석저수지",
        "latitude": "34.84287592",
        "longitude": "126.7152216",
        "위치": "충청남도 예산군 대술면 송석리 산35-3",
        "유효저수량": "1415.6"
    },
    {
        "name": "yeongdong",
        "ko_name": "영동저수지",
        "latitude": "34.47622925",
        "longitude": "126.8194855",
        "위치": "전라남도 강진군 마량면 마량리 산45-2",
        "유효저수량": "1411"
    },
    {
        "name": "deoksan",
        "ko_name": "덕산저수지",
        "latitude": "37.07711742",
        "longitude": "127.3641487",
        "위치": "전북특별자치도 무주군 안성면 덕산리 산21-3",
        "유효저수량": "1408.2"
    },
    {
        "name": "odong",
        "ko_name": "오동저수지",
        "latitude": "35.21122344",
        "longitude": "126.3936634",
        "위치": "전라남도 영광군 염산면 오동리 1098",
        "유효저수량": "1407.6"
    },
    {
        "name": "hoeryong",
        "ko_name": "회룡저수지",
        "latitude": "35.53847383",
        "longitude": "128.4272774",
        "위치": "경상북도 문경시 산북면 회룡리 산99-4",
        "유효저수량": "1407"
    },
    {
        "name": "dowon",
        "ko_name": "도원저수지",
        "latitude": "38.26899727",
        "longitude": "128.4823453",
        "위치": "대구광역시 달서구 도원동 774",
        "유효저수량": "1404.3"
    },
    {
        "name": "seorak",
        "ko_name": "설악저수지",
        "latitude": "38.12229086",
        "longitude": "128.5409021",
        "위치": "강원특별자치도 양양군 강현면 둔전리 산1-5",
        "유효저수량": "1403"
    },
    {
        "name": "hyochon",
        "ko_name": "효촌저수지",
        "latitude": "37.87500246",
        "longitude": "126.9656303",
        "위치": "경기도 양주시 남면 두곡리 산16",
        "유효저수량": "1395"
    },
    {
        "name": "chuam",
        "ko_name": "추암저수지",
        "latitude": "35.3445596",
        "longitude": "126.7346847",
        "위치": "전라남도 장성군 서삼면 추암리 60-7",
        "유효저수량": "1395"
    },
    {
        "name": "undae1",
        "ko_name": "운대1저수지",
        "latitude": "34.64228915",
        "longitude": "127.3266923",
        "위치": "전라남도 고흥군 두원면 운대리 산240-7",
        "유효저수량": "1388"
    },
    {
        "name": "mueul",
        "ko_name": "무을저수지",
        "latitude": "36.26855519",
        "longitude": "128.1559928",
        "위치": "경상북도 구미시 무을면 상송리 756",
        "유효저수량": "1387.4"
    },
    {
        "name": "daepo",
        "ko_name": "대포저수지",
        "latitude": "36.35028277",
        "longitude": "128.0085979",
        "위치": "전라남도 여수시 소라면 대포리 826",
        "유효저수량": "1380.9"
    },
    {
        "name": "baegun",
        "ko_name": "백운저수지",
        "latitude": "34.99786823",
        "longitude": "127.5879112",
        "위치": "경기도 의왕시 학의동 산76-11",
        "유효저수량": "1379.1"
    },
    {
        "name": "daesa",
        "ko_name": "대사저수지",
        "latitude": "36.6399075",
        "longitude": "126.551241",
        "위치": "충청남도 홍성군 갈산면 대사리 산79-9",
        "유효저수량": "1376.2"
    },
    {
        "name": "jwaun",
        "ko_name": "좌운저수지",
        "latitude": "37.64104619",
        "longitude": "128.0339602",
        "위치": "강원특별자치도 홍천군 영귀미면 좌운리 산249-1",
        "유효저수량": "1368"
    },
    {
        "name": "yoryong",
        "ko_name": "요룡저수지",
        "latitude": "36.52938724",
        "longitude": "127.138829",
        "위치": "충청남도 공주시 의당면 요룡리 산12-9",
        "유효저수량": "1364"
    },
    {
        "name": "seongdeok",
        "ko_name": "성덕저수지",
        "latitude": "37.47178065",
        "longitude": "127.415736",
        "위치": "전라남도 곡성군 오산면 선세리 산172-4",
        "유효저수량": "1360.6"
    },
    {
        "name": "uchi",
        "ko_name": "우치저수지",
        "latitude": "34.87352361",
        "longitude": "126.9057651",
        "위치": "전라남도 화순군 도암면 우치리 산57-5",
        "유효저수량": "1356.6"
    },
    {
        "name": "daegok",
        "ko_name": "대곡저수지",
        "latitude": "34.86908225",
        "longitude": "127.8774799",
        "위치": "전라남도 보성군 조성면 대곡리 산1-1",
        "유효저수량": "1346"
    },
    {
        "name": "gogyeong",
        "ko_name": "고경저수지",
        "latitude": "35.96806425",
        "longitude": "129.1132223",
        "위치": "경상북도 영천시 고경면 청정리 산121-5",
        "유효저수량": "1345.5"
    },
    {
        "name": "sannam",
        "ko_name": "산남저수지",
        "latitude": "35.35041701",
        "longitude": "128.1740152",
        "위치": "경상남도 창원시 의창구 동읍 금산리 산108-4",
        "유효저수량": "1340.7"
    },
    {
        "name": "gwanggok",
        "ko_name": "광곡저수지",
        "latitude": "35.75097241",
        "longitude": "127.172222",
        "위치": "전북특별자치도 완주군 구이면 광곡리 산74-1",
        "유효저수량": "1339"
    },
    {
        "name": "hwasan",
        "ko_name": "화산저수지",
        "latitude": "37.15197255",
        "longitude": "127.2281419",
        "위치": "울산광역시 울주군 서생면 화산리 산95-6",
        "유효저수량": "1338.9"
    },
    {
        "name": "bongjae",
        "ko_name": "봉재저수지",
        "latitude": "36.87381756",
        "longitude": "127.030033",
        "위치": "충청남도 아산시 둔포면 봉재리 316-10",
        "유효저수량": "1337.8"
    },
    {
        "name": "musu",
        "ko_name": "무수저수지",
        "latitude": "36.28675205",
        "longitude": "128.1916915",
        "위치": "충청북도 진천군 광혜원면 회죽리 산11-2",
        "유효저수량": "1320"
    },
    {
        "name": "dunjeon",
        "ko_name": "둔전저수지",
        "latitude": "34.53013191",
        "longitude": "126.318276",
        "위치": "전라남도 진도군 군내면 세등리 763-2",
        "유효저수량": "1316"
    },
    {
        "name": "wonam",
        "ko_name": "원암저수지",
        "latitude": "38.20516095",
        "longitude": "128.4996443",
        "위치": "강원특별자치도 속초시 노학동 산1",
        "유효저수량": "1305.5"
    },
    {
        "name": "sohyang",
        "ko_name": "소향저수지",
        "latitude": "36.00431619",
        "longitude": "127.2825574",
        "위치": "전북특별자치도 완주군 고산면 소향리 산13-3",
        "유효저수량": "1304"
    },
    {
        "name": "daegok",
        "ko_name": "대곡저수지",
        "latitude": "34.86908225",
        "longitude": "127.8774799",
        "위치": "경상북도 영덕군 축산면 대곡리 산108-1",
        "유효저수량": "1301.4"
    },
    {
        "name": "dangjeon",
        "ko_name": "당전저수지",
        "latitude": "34.52859103",
        "longitude": "126.8282658",
        "위치": "전라남도 강진군 대구면 용운리 585",
        "유효저수량": "1297.2"
    },
    {
        "name": "docheon",
        "ko_name": "도천저수지",
        "latitude": "35.27479994",
        "longitude": "128.4718611",
        "위치": "전북특별자치도 고창군 심원면 도천리 산24-1",
        "유효저수량": "1294"
    },
    {
        "name": "cheontae",
        "ko_name": "천태저수지",
        "latitude": "36.51782722",
        "longitude": "126.7462226",
        "위치": "충청남도 홍성군 장곡면 천태리 522-3",
        "유효저수량": "1290"
    },
    {
        "name": "maesan",
        "ko_name": "매산저수지",
        "latitude": "37.3476685",
        "longitude": "127.2669352",
        "위치": "경상북도 포항시 북구 흥해읍 매산리 산101-1",
        "유효저수량": "1290"
    },
    {
        "name": "suryong",
        "ko_name": "수룡저수지",
        "latitude": "36.75368763",
        "longitude": "126.2332471",
        "위치": "충청남도 태안군 근흥면 수룡리 409-17",
        "유효저수량": "1285"
    },
    {
        "name": "soseong",
        "ko_name": "소성저수지",
        "latitude": "36.02048768",
        "longitude": "128.2404734",
        "위치": "경상북도 성주군 초전면 소성리 산74-5",
        "유효저수량": "1280"
    },
    {
        "name": "daesan",
        "ko_name": "대산저수지",
        "latitude": "34.98910371",
        "longitude": "128.1600459",
        "위치": "인천광역시 강화군 송해면 숭뢰리 1082-2",
        "유효저수량": "1271"
    },
    {
        "name": "hwagok",
        "ko_name": "화곡저수지",
        "latitude": "37.15972747",
        "longitude": "127.1899146",
        "위치": "강원특별자치도 고성군 현내면 마달리 산32-2",
        "유효저수량": "1270"
    },
    {
        "name": "sotae",
        "ko_name": "소태저수지",
        "latitude": "35.57061504",
        "longitude": "128.6218667",
        "위치": "경상남도 밀양시 청도면 소태리 570-1",
        "유효저수량": "1269.1"
    },
    {
        "name": "gaecheon",
        "ko_name": "개천저수지",
        "latitude": "35.36182989",
        "longitude": "129.2780983",
        "위치": "경상북도 의성군 안계면 위양리 산11-9",
        "유효저수량": "1259"
    },
    {
        "name": "yanghwa",
        "ko_name": "양화저수지",
        "latitude": "35.01078651",
        "longitude": "128.2869404",
        "위치": "경상남도 고성군 대가면 연지리 산3-2",
        "유효저수량": "1257.3"
    },
    {
        "name": "gomo",
        "ko_name": "고모저수지",
        "latitude": "37.79787713",
        "longitude": "127.1632702",
        "위치": "경기도 포천시 소흘읍 고모리 산2-5",
        "유효저수량": "1249.6"
    },
    {
        "name": "nodong",
        "ko_name": "노동저수지",
        "latitude": "34.74339133",
        "longitude": "126.5638836",
        "위치": "전북특별자치도 고창군 고창읍 노동리 산11-1",
        "유효저수량": "1247.5"
    },
    {
        "name": "gisa",
        "ko_name": "기사저수지",
        "latitude": "36.44151756",
        "longitude": "129.183582",
        "위치": "경상북도 영덕군 지품면 기사리 산33-1",
        "유효저수량": "1242"
    },
    {
        "name": "mansu",
        "ko_name": "만수저수지",
        "latitude": "37.01936644",
        "longitude": "127.1857477",
        "위치": "전북특별자치도 정읍시 고부면 만수리 산93-4",
        "유효저수량": "1241.5"
    },
    {
        "name": "daesan",
        "ko_name": "대산저수지",
        "latitude": "34.98910371",
        "longitude": "128.1600459",
        "위치": "전북특별자치도 순창군 인계면 마흘리 산42-1",
        "유효저수량": "1241.1"
    },
    {
        "name": "yeonhwa",
        "ko_name": "연화저수지",
        "latitude": "35.07926044",
        "longitude": "128.2080034",
        "위치": "전라남도 해남군 화산면 방축리 177-2",
        "유효저수량": "1238.3"
    },
    {
        "name": "jeokryang",
        "ko_name": "적량저수지",
        "latitude": "35.10495689",
        "longitude": "127.752871",
        "위치": "경상남도 하동군 적량면 우계리 산112-16",
        "유효저수량": "1237"
    },
    {
        "name": "duchang",
        "ko_name": "두창저수지",
        "latitude": "37.1476582",
        "longitude": "127.3374405",
        "위치": "경기도 용인시 처인구 원삼면 두창리 산107-2",
        "유효저수량": "1223.4"
    },
    {
        "name": "seokgye",
        "ko_name": "석계저수지",
        "latitude": "35.02331056",
        "longitude": "128.0811409",
        "위치": "경상남도 사천시 용현면 석계리 산28-6",
        "유효저수량": "1222.8"
    },
    {
        "name": "gamdong",
        "ko_name": "감동저수지",
        "latitude": "35.56654297",
        "longitude": "128.5600814",
        "위치": "경상남도 창녕군 고암면 감리 1348-1",
        "유효저수량": "1213.8"
    },
    {
        "name": "chilseong",
        "ko_name": "칠성저수지",
        "latitude": "37.68829611",
        "longitude": "128.8923003",
        "위치": "경상북도 영덕군 축산면 칠성리 산134-8",
        "유효저수량": "1212"
    },
    {
        "name": "samhwa",
        "ko_name": "삼화저수지",
        "latitude": "35.13361802",
        "longitude": "127.7577197",
        "위치": "경상남도 하동군 적량면 서리 산41-1",
        "유효저수량": "1208.9"
    },
    {
        "name": "galcheon",
        "ko_name": "갈천저수지",
        "latitude": "35.03268173",
        "longitude": "128.2499532",
        "위치": "경상남도 고성군 대가면 갈천리 산141-13",
        "유효저수량": "1207.9"
    },
    {
        "name": "cheongyong",
        "ko_name": "청용저수지",
        "latitude": "35.17468018",
        "longitude": "127.853074",
        "위치": "충청남도 천안시 서북구 입장면 도림리 250-1",
        "유효저수량": "1200"
    },
    {
        "name": "hado",
        "ko_name": "하도저수지",
        "latitude": "35.71681456",
        "longitude": "128.7440713",
        "위치": "경상북도 경산시 남천면 하도리 산108",
        "유효저수량": "1199"
    },
    {
        "name": "sangcheon",
        "ko_name": "상천저수지",
        "latitude": "37.76849421",
        "longitude": "127.4751022",
        "위치": "경상남도 거창군 위천면 상천리 산53",
        "유효저수량": "1191.1"
    },
    {
        "name": "bongam",
        "ko_name": "봉암저수지",
        "latitude": "37.91841153",
        "longitude": "126.9974353",
        "위치": "경기도 양주시 은현면 봉암리 산33-6",
        "유효저수량": "1187"
    },
    {
        "name": "wolsan2",
        "ko_name": "월산2저수지",
        "latitude": "35.35258525",
        "longitude": "126.8932824",
        "위치": "전라남도 담양군 월산면 용흥리 산70-3",
        "유효저수량": "1185.9"
    },
    {
        "name": "gaeun",
        "ko_name": "개운저수지",
        "latitude": "37.65038012",
        "longitude": "127.9523262",
        "위치": "경상북도 상주시 개운동 산147-6",
        "유효저수량": "1180"
    },
    {
        "name": "heukseok",
        "ko_name": "흑석저수지",
        "latitude": "35.28221891",
        "longitude": "127.2096991",
        "위치": "전라남도 곡성군 입면 약천리 산154",
        "유효저수량": "1178.4"
    },
    {
        "name": "hyangyang",
        "ko_name": "향양저수지",
        "latitude": "35.54957317",
        "longitude": "127.856306",
        "위치": "경상남도 산청군 생초면 향양리 산37-2",
        "유효저수량": "1176.8"
    },
    {
        "name": "ansim",
        "ko_name": "안심저수지",
        "latitude": "35.73462862",
        "longitude": "129.1471501",
        "위치": "전라남도 화순군 이서면 안심리 산96-5",
        "유효저수량": "1173.2"
    },
    {
        "name": "pungnyeon",
        "ko_name": "풍년저수지",
        "latitude": "36.8959408",
        "longitude": "127.2255582",
        "위치": "충청남도 천안시 서북구 입장면 시장리 산8-11",
        "유효저수량": "1172.4"
    },
    {
        "name": "banwol",
        "ko_name": "반월저수지",
        "latitude": "37.32113388",
        "longitude": "126.8903212",
        "위치": "경기도 군포시 둔대동 산109-3",
        "유효저수량": "1165.8"
    },
    {
        "name": "waryong",
        "ko_name": "와룡저수지",
        "latitude": "34.95918915",
        "longitude": "128.0991484",
        "위치": "경상남도 사천시 와룡동 산106-3",
        "유효저수량": "1165.1"
    },
    {
        "name": "gisan",
        "ko_name": "기산저수지",
        "latitude": "37.94121256",
        "longitude": "127.3406154",
        "위치": "경기도 포천시 일동면 기산리 10-5",
        "유효저수량": "1161.5"
    },
    {
        "name": "yongpyeong",
        "ko_name": "용평저수지",
        "latitude": "36.07349203",
        "longitude": "128.0698708",
        "위치": "전북특별자치도 남원시 보절면 도룡리 산16-1",
        "유효저수량": "1161.3"
    },
    {
        "name": "songjeong",
        "ko_name": "송정저수지",
        "latitude": "37.3909706",
        "longitude": "127.8782884",
        "위치": "울산광역시 북구 송정동 산26-5",
        "유효저수량": "1161.1"
    },
    {
        "name": "geumsan",
        "ko_name": "금산저수지",
        "latitude": "34.69960595",
        "longitude": "126.9462395",
        "위치": "전라남도 장흥군 장흥읍 해당리 595-4",
        "유효저수량": "1160.1"
    },
    {
        "name": "yukdong",
        "ko_name": "육동저수지",
        "latitude": "34.29632747",
        "longitude": "126.0731287",
        "위치": "경상북도 경산시 용성면 부일리 산54-2",
        "유효저수량": "1154.1"
    },
    {
        "name": "nohong",
        "ko_name": "노홍저수지",
        "latitude": "35.75727726",
        "longitude": "128.4421318",
        "위치": "대구광역시 달성군 논공읍 노이리 산247-4",
        "유효저수량": "1153.3"
    },
    {
        "name": "jijeong",
        "ko_name": "지정저수지",
        "latitude": "34.56130115",
        "longitude": "126.9792892",
        "위치": "광주광역시 광산구 명화동 11-12",
        "유효저수량": "1150"
    },
    {
        "name": "maehyeon",
        "ko_name": "매현저수지",
        "latitude": "36.35163085",
        "longitude": "129.2954495",
        "위치": "경상북도 영덕군 달산면 옥산리 산4-7",
        "유효저수량": "1147.2"
    },
    {
        "name": "daewi",
        "ko_name": "대위저수지",
        "latitude": "35.92307836",
        "longitude": "126.7630981",
        "위치": "전북특별자치도 군산시 회현면 고사리 산1-2",
        "유효저수량": "1147"
    },
    {
        "name": "jangsan",
        "ko_name": "장산저수지",
        "latitude": "34.64756873",
        "longitude": "126.1667972",
        "위치": "전라남도 신안군 장산면 공수리 산38",
        "유효저수량": "1142.8"
    },
    {
        "name": "chungdo",
        "ko_name": "충도저수지",
        "latitude": "36.9087914",
        "longitude": "127.7306044",
        "위치": "충청북도 음성군 소이면 충도리 산30-15",
        "유효저수량": "1140"
    },
    {
        "name": "ssangjeong",
        "ko_name": "쌍정저수지",
        "latitude": "34.47580785",
        "longitude": "126.2718261",
        "위치": "전라남도 영암군 영암읍 개신리 산28-7",
        "유효저수량": "1138"
    },
    {
        "name": "seongyang",
        "ko_name": "성양저수지",
        "latitude": "34.77585912",
        "longitude": "126.6415814",
        "위치": "전라남도 영암군 군서면 성양리 산35",
        "유효저수량": "1136.7"
    },
    {
        "name": "daepyeong",
        "ko_name": "대평저수지",
        "latitude": "37.4211639",
        "longitude": "127.6313121",
        "위치": "경기도 양평군 지평면 대평리 산17-2",
        "유효저수량": "1135.7"
    },
    {
        "name": "sinhang",
        "ko_name": "신항저수지",
        "latitude": "36.85144069",
        "longitude": "127.7776932",
        "위치": "충청북도 괴산군 괴산읍 신항리 산123-2",
        "유효저수량": "1133.8"
    },
    {
        "name": "deogam",
        "ko_name": "덕암저수지",
        "latitude": "35.37189173",
        "longitude": "128.262456",
        "위치": "경상남도 의령군 용덕면 이목리 산180-2",
        "유효저수량": "1129.7"
    },
    {
        "name": "yongdam",
        "ko_name": "용담저수지",
        "latitude": "37.18787568",
        "longitude": "127.3071443",
        "위치": "경기도 용인시 처인구 원삼면 미평리 589",
        "유효저수량": "1128.3"
    },
    {
        "name": "gyeongpo",
        "ko_name": "경포저수지",
        "latitude": "37.77990933",
        "longitude": "128.8615653",
        "위치": "강원특별자치도 강릉시 죽헌동 산42-2",
        "유효저수량": "1127"
    },
    {
        "name": "gurim",
        "ko_name": "구림저수지",
        "latitude": "34.73142587",
        "longitude": "126.3247513",
        "위치": "전북특별자치도 순창군 구림면 월정리 산158-4",
        "유효저수량": "1127"
    },
    {
        "name": "janggok",
        "ko_name": "장곡저수지",
        "latitude": "35.47997958",
        "longitude": "128.4303603",
        "위치": "충청남도 홍성군 장곡면 화계리 538-1",
        "유효저수량": "1121.7"
    },
    {
        "name": "yangdeok",
        "ko_name": "양덕저수지",
        "latitude": "37.0264518",
        "longitude": "127.4868325",
        "위치": "충청북도 음성군 삼성면 양덕리 393-9",
        "유효저수량": "1119.1"
    },
    {
        "name": "changsu",
        "ko_name": "창수저수지",
        "latitude": "36.59346902",
        "longitude": "129.2383771",
        "위치": "경상북도 영덕군 창수면 창수리 산40-4",
        "유효저수량": "1116"
    },
    {
        "name": "deokga",
        "ko_name": "덕가저수지",
        "latitude": "36.50198589",
        "longitude": "128.2060446",
        "위치": "경상북도 상주시 사벌국면 덕가리 산170-3",
        "유효저수량": "1115.5"
    },
    {
        "name": "seongsong",
        "ko_name": "성송저수지",
        "latitude": "35.34344182",
        "longitude": "126.6502129",
        "위치": "전북특별자치도 고창군 성송면 암치리 산73-9",
        "유효저수량": "1109"
    },
    {
        "name": "sachon",
        "ko_name": "사촌저수지",
        "latitude": "35.22182094",
        "longitude": "128.3533097",
        "위치": "경상북도 청송군 현서면 사촌리 86-8",
        "유효저수량": "1100"
    },
    {
        "name": "heungeop",
        "ko_name": "흥업저수지",
        "latitude": "37.28084398",
        "longitude": "127.9065788",
        "위치": "강원특별자치도 원주시 흥업면 매지리 1432",
        "유효저수량": "1098"
    },
    {
        "name": "cheonggye",
        "ko_name": "청계저수지",
        "latitude": "35.47324714",
        "longitude": "128.2124225",
        "위치": "경기도 과천시 막계동 158-02",
        "유효저수량": "1092.5"
    },
    {
        "name": "sinhyu",
        "ko_name": "신휴저수지",
        "latitude": "36.89156106",
        "longitude": "127.0757595",
        "위치": "충청남도 아산시 음봉면 신휴리 산44-1",
        "유효저수량": "1090.4"
    },
    {
        "name": "sujang",
        "ko_name": "수장저수지",
        "latitude": "35.58049904",
        "longitude": "128.4742208",
        "위치": "전라남도 진도군 임회면 석교리 산113-1",
        "유효저수량": "1088"
    },
    {
        "name": "songnae",
        "ko_name": "송내저수지",
        "latitude": "35.7771364",
        "longitude": "128.8228467",
        "위치": "경상북도 경산시 남산면 송내리 산31-6",
        "유효저수량": "1087"
    },
    {
        "name": "gacheon",
        "ko_name": "가천저수지",
        "latitude": "35.12190523",
        "longitude": "128.2820305",
        "위치": "경상남도 사천시 사남면 가천리 산17-8",
        "유효저수량": "1086.2"
    },
    {
        "name": "wolgok",
        "ko_name": "월곡저수지",
        "latitude": "37.13161321",
        "longitude": "127.1846982",
        "위치": "경상남도 창녕군 성산면 대산리 산152-9",
        "유효저수량": "1081.8"
    },
    {
        "name": "gurun",
        "ko_name": "굴운저수지",
        "latitude": "37.73048959",
        "longitude": "127.9621326",
        "위치": "강원특별자치도 홍천군 화촌면 굴운리 산166-1",
        "유효저수량": "1079"
    },
    {
        "name": "oksil",
        "ko_name": "옥실저수지",
        "latitude": "35.17272843",
        "longitude": "126.3793216",
        "위치": "전라남도 영광군 염산면 옥실리 1476",
        "유효저수량": "1078.6"
    },
    {
        "name": "songgang",
        "ko_name": "송강저수지",
        "latitude": "34.38377695",
        "longitude": "126.1914635",
        "위치": "충청북도 충주시 산척면 송강리 산236-260",
        "유효저수량": "1077"
    },
    {
        "name": "gonam",
        "ko_name": "고남저수지",
        "latitude": "36.82131822",
        "longitude": "126.4257171",
        "위치": "충청남도 서산시 성연면 고남리 산56-6",
        "유효저수량": "1072.5"
    },
    {
        "name": "botong",
        "ko_name": "보통저수지",
        "latitude": "37.19304606",
        "longitude": "126.9747658",
        "위치": "경기도 화성시 정남면 보통리 493-1",
        "유효저수량": "1070.8"
    },
    {
        "name": "hongdong",
        "ko_name": "홍동저수지",
        "latitude": "34.62391209",
        "longitude": "127.2561573",
        "위치": "충청남도 홍성군 장곡면 지정리 산81",
        "유효저수량": "1063.8"
    },
    {
        "name": "pangok",
        "ko_name": "판곡저수지",
        "latitude": "36.42448404",
        "longitude": "127.9827425",
        "위치": "경상북도 상주시 화동면 판곡리 산126-3",
        "유효저수량": "1062"
    },
    {
        "name": "dondap",
        "ko_name": "돈답저수지",
        "latitude": "36.75116911",
        "longitude": "128.7164252",
        "위치": "경상북도 예천군 감천면 돈산리 1-4",
        "유효저수량": "1061"
    },
    {
        "name": "solgi",
        "ko_name": "솔기저수지",
        "latitude": "35.29388233",
        "longitude": "128.0277708",
        "위치": "경상남도 진주시 명석면 신기리 산101-1",
        "유효저수량": "1058.6"
    },
    {
        "name": "docheon",
        "ko_name": "도천저수지",
        "latitude": "35.27479994",
        "longitude": "128.4718611",
        "위치": "경상북도 영덕군 남정면 도천리 산109-4",
        "유효저수량": "1052"
    },
    {
        "name": "soam",
        "ko_name": "소암저수지",
        "latitude": "36.83729727",
        "longitude": "127.7047877",
        "위치": "충청북도 괴산군 소수면 소암리 산110-1",
        "유효저수량": "1050.7"
    },
    {
        "name": "dogok",
        "ko_name": "도곡저수지",
        "latitude": "35.55975336",
        "longitude": "128.8309441",
        "위치": "경상북도 영양군 일월면 도곡리 산96-7",
        "유효저수량": "1050"
    },
    {
        "name": "yongcheon",
        "ko_name": "용천저수지",
        "latitude": "35.29898365",
        "longitude": "129.1929827",
        "위치": "경상북도 포항시 북구 신광면 냉수리 산82-12",
        "유효저수량": "1043.5"
    },
    {
        "name": "seokpo",
        "ko_name": "석포저수지",
        "latitude": "35.61432825",
        "longitude": "126.6047366",
        "위치": "전북특별자치도 부안군 진서면 석포리 산72-6",
        "유효저수량": "1040"
    },
    {
        "name": "hwangrak",
        "ko_name": "황락저수지",
        "latitude": "36.72048257",
        "longitude": "126.5736503",
        "위치": "충청남도 서산시 해미면 황락리 산46-1",
        "유효저수량": "1038.5"
    },
    {
        "name": "dori",
        "ko_name": "도리저수지",
        "latitude": "35.32573957",
        "longitude": "128.037457",
        "위치": "경상남도 산청군 생비량면 도리 산74-1",
        "유효저수량": "1035.9"
    },
    {
        "name": "daman",
        "ko_name": "담안저수지",
        "latitude": "34.695848",
        "longitude": "126.9907541",
        "위치": "전라남도 보성군 웅치면 대산리 산67-1",
        "유효저수량": "1035"
    },
    {
        "name": "seongnae",
        "ko_name": "성내저수지",
        "latitude": "36.87744146",
        "longitude": "126.9847591",
        "위치": "충청남도 아산시 영인면 성내리 510",
        "유효저수량": "1032.8"
    },
    {
        "name": "hoam",
        "ko_name": "호암저수지",
        "latitude": "36.02442103",
        "longitude": "128.356383",
        "위치": "충청북도 충주시 호암동 산73-4",
        "유효저수량": "1030"
    },
    {
        "name": "chodae",
        "ko_name": "초대저수지",
        "latitude": "36.9030474",
        "longitude": "126.7401473",
        "위치": "충청남도 당진시 신평면 초대리 428-2",
        "유효저수량": "1026"
    },
    {
        "name": "owon",
        "ko_name": "오원저수지",
        "latitude": "37.43594932",
        "longitude": "128.1063104",
        "위치": "강원특별자치도 횡성군 우천면 오원리 산38-3",
        "유효저수량": "1024"
    },
    {
        "name": "uncheon",
        "ko_name": "운천저수지",
        "latitude": "35.15823308",
        "longitude": "128.2721464",
        "위치": "전라남도 순천시 별량면 봉림리 산44-3",
        "유효저수량": "1022.7"
    },
    {
        "name": "yeonbong2",
        "ko_name": "연봉2저수지",
        "latitude": "34.6694767",
        "longitude": "127.3520612",
        "위치": "전라남도 고흥군 점암면 연봉리 814",
        "유효저수량": "1020"
    },
    {
        "name": "aeryong",
        "ko_name": "애룡저수지",
        "latitude": "37.82646207",
        "longitude": "126.8593232",
        "위치": "경기도 파주시 법원읍 삼방리 산1-5",
        "유효저수량": "1014.6"
    },
    {
        "name": "bonggok",
        "ko_name": "봉곡저수지",
        "latitude": "35.60752738",
        "longitude": "127.7754558",
        "위치": "대전광역시 서구 봉곡동 산74",
        "유효저수량": "1014.5"
    },
    {
        "name": "dongbang",
        "ko_name": "동방저수지",
        "latitude": "37.14908193",
        "longitude": "126.8666435",
        "위치": "경기도 화성시 팔탄면 덕천리 375-48",
        "유효저수량": "1014.2"
    },
    {
        "name": "sinheung",
        "ko_name": "신흥저수지",
        "latitude": "34.61309845",
        "longitude": "127.3098367",
        "위치": "충청북도 괴산군 불정면 신흥리 산34-8",
        "유효저수량": "1011.4"
    },
    {
        "name": "okgye",
        "ko_name": "옥계저수지",
        "latitude": "37.61862674",
        "longitude": "128.9839106",
        "위치": "전북특별자치도 남원시 운봉읍 화수리 산9-6",
        "유효저수량": "1010.7"
    },
    {
        "name": "ugeum",
        "ko_name": "우금저수지",
        "latitude": "37.82763436",
        "longitude": "127.2117838",
        "위치": "경기도 포천시 가산면 우금리 715-3",
        "유효저수량": "1009.3"
    },
    {
        "name": "hwasan",
        "ko_name": "화산저수지",
        "latitude": "37.15197255",
        "longitude": "127.2281419",
        "위치": "경상북도 영천시 신녕면 연정리 116",
        "유효저수량": "1009.2"
    },
    {
        "name": "daeji",
        "ko_name": "대지저수지",
        "latitude": "35.23785514",
        "longitude": "127.4794201",
        "위치": "전라남도 구례군 마산면 황전리 691-2",
        "유효저수량": "1005"
    },
    {
        "name": "worak",
        "ko_name": "월악저수지",
        "latitude": "34.6994326",
        "longitude": "127.3739869",
        "위치": "전라남도 고흥군 남양면 장담리 산205-2",
        "유효저수량": "1002"
    },
    {
        "name": "joyeon",
        "ko_name": "조연저수지",
        "latitude": "37.94708699",
        "longitude": "127.7688372",
        "위치": "강원특별자치도 춘천시 신북읍 유포리 555-3",
        "유효저수량": "1000"
    },
    {
        "name": "jangan",
        "ko_name": "장안저수지",
        "latitude": "36.57300325",
        "longitude": "128.2631199",
        "위치": "대전광역시 서구 장안동 산53-3",
        "유효저수량": "998.3"
    },
    {
        "name": "janggye",
        "ko_name": "장계저수지",
        "latitude": "37.04178399",
        "longitude": "127.4071385",
        "위치": "경기도 안성시 죽산면 장계리 산118",
        "유효저수량": "992.4"
    },
    {
        "name": "galgok",
        "ko_name": "갈곡저수지",
        "latitude": "34.84341288",
        "longitude": "127.9943324",
        "위치": "경상남도 남해군 삼동면 봉화리 76",
        "유효저수량": "991.8"
    },
    {
        "name": "seogu",
        "ko_name": "석우저수지",
        "latitude": "35.63040594",
        "longitude": "126.7767341",
        "위치": "전북특별자치도 정읍시 고부면 장문리 산1-3",
        "유효저수량": "991"
    },
    {
        "name": "baegam",
        "ko_name": "백암저수지",
        "latitude": "35.13502126",
        "longitude": "128.2553407",
        "위치": "전라남도 장성군 북이면 백암리 산11-1",
        "유효저수량": "989.6"
    },
    {
        "name": "yongsan",
        "ko_name": "용산저수지",
        "latitude": "37.94459567",
        "longitude": "127.7189131",
        "위치": "전라남도 진도군 임회면 용호리 산95-5",
        "유효저수량": "988"
    },
    {
        "name": "hwasan",
        "ko_name": "화산저수지",
        "latitude": "37.15197255",
        "longitude": "127.2281419",
        "위치": "경상북도 경주시 천북면 화산리 산26-1",
        "유효저수량": "979"
    },
    {
        "name": "seokmun",
        "ko_name": "석문저수지",
        "latitude": "35.13134801",
        "longitude": "126.6855571",
        "위치": "충청남도 당진시 석문면 삼봉리 1232",
        "유효저수량": "975"
    },
    {
        "name": "myeonggwan",
        "ko_name": "명관저수지",
        "latitude": "35.2318761",
        "longitude": "128.3364906",
        "위치": "경상남도 함안군 군북면 명관리 산72",
        "유효저수량": "974"
    },
    {
        "name": "munsan",
        "ko_name": "문산저수지",
        "latitude": "36.14311683",
        "longitude": "126.7466655",
        "위치": "충청남도 서천군 문산면 신농리 25-11",
        "유효저수량": "973.2"
    },
    {
        "name": "bongyang",
        "ko_name": "봉양저수지",
        "latitude": "34.57081714",
        "longitude": "127.2287393",
        "위치": "전라남도 강진군 신전면 수양리 산41-1",
        "유효저수량": "973.1"
    },
    {
        "name": "eonbyeol",
        "ko_name": "언별저수지",
        "latitude": "37.65950006",
        "longitude": "128.9219965",
        "위치": "강원특별자치도 강릉시 강동면 언별리 1432-21",
        "유효저수량": "972"
    },
    {
        "name": "songok",
        "ko_name": "손곡저수지",
        "latitude": "37.22185479",
        "longitude": "127.7964479",
        "위치": "강원특별자치도 원주시 부론면 손곡리 산158-3",
        "유효저수량": "969"
    },
    {
        "name": "byeoknam",
        "ko_name": "벽남저수지",
        "latitude": "35.68669359",
        "longitude": "127.5830976",
        "위치": "전북특별자치도 장수군 계남면 화음리 산93",
        "유효저수량": "969"
    },
    {
        "name": "bokseong",
        "ko_name": "복성저수지",
        "latitude": "37.10767396",
        "longitude": "127.7185374",
        "위치": "충청북도 충주시 앙성면 지당리 산149-1",
        "유효저수량": "967"
    },
    {
        "name": "igok",
        "ko_name": "이곡저수지",
        "latitude": "37.59752465",
        "longitude": "127.2302029",
        "위치": "충청북도 괴산군 사리면 이곡리 산40-8",
        "유효저수량": "967"
    },
    {
        "name": "seongnae",
        "ko_name": "성내저수지",
        "latitude": "36.87744146",
        "longitude": "126.9847591",
        "위치": "전북특별자치도 고창군 성내면 신대리 산20-2",
        "유효저수량": "958.5"
    },
    {
        "name": "cheonggye",
        "ko_name": "청계저수지",
        "latitude": "35.47324714",
        "longitude": "128.2124225",
        "위치": "경상북도 포항시 북구 청하면 청계리 787",
        "유효저수량": "956.6"
    },
    {
        "name": "sanmak",
        "ko_name": "산막저수지",
        "latitude": "36.11455828",
        "longitude": "127.7864311",
        "위치": "충청북도 영동군 양강면 산막리 산13-4",
        "유효저수량": "955"
    },
    {
        "name": "eopseong",
        "ko_name": "업성저수지",
        "latitude": "36.8485012",
        "longitude": "127.1356385",
        "위치": "충청남도 천안시 서북구 업성동 412-6",
        "유효저수량": "952"
    },
    {
        "name": "namsa",
        "ko_name": "남사저수지",
        "latitude": "35.90656513",
        "longitude": "129.1405874",
        "위치": "경상북도 경주시 현곡면 남사리 94-3",
        "유효저수량": "952"
    },
    {
        "name": "gacheon",
        "ko_name": "가천저수지",
        "latitude": "35.12190523",
        "longitude": "128.2820305",
        "위치": "경상남도 고성군 개천면 가천리 산82-4",
        "유효저수량": "949.5"
    },
    {
        "name": "ucheon",
        "ko_name": "우천저수지",
        "latitude": "37.44123621",
        "longitude": "128.0566948",
        "위치": "강원특별자치도 횡성군 우천면 법주리 73-10",
        "유효저수량": "949"
    },
    {
        "name": "mipo",
        "ko_name": "미포저수지",
        "latitude": "36.58011179",
        "longitude": "126.3599077",
        "위치": "충청남도 태안군 안면읍 창기리 산10-469",
        "유효저수량": "946.8"
    },
    {
        "name": "mungwang",
        "ko_name": "문광저수지",
        "latitude": "36.76750733",
        "longitude": "127.7487643",
        "위치": "충청북도 괴산군 문광면 신기리 산77-1",
        "유효저수량": "945.2"
    },
    {
        "name": "gwangdae",
        "ko_name": "광대저수지",
        "latitude": "34.79739696",
        "longitude": "125.9855497",
        "위치": "전라남도 신안군 비금면 광대리 산49-9",
        "유효저수량": "944.4"
    },
    {
        "name": "yongdeok",
        "ko_name": "용덕저수지",
        "latitude": "37.18506391",
        "longitude": "127.2249831",
        "위치": "경기도 용인시 처인구 이동읍 묵리 875",
        "유효저수량": "943"
    },
    {
        "name": "naengjeong",
        "ko_name": "냉정저수지",
        "latitude": "38.17376161",
        "longitude": "127.2747795",
        "위치": "충청남도 아산시 인주면 신성리 68-6",
        "유효저수량": "940.1"
    },
    {
        "name": "jangsan",
        "ko_name": "장산저수지",
        "latitude": "34.64756873",
        "longitude": "126.1667972",
        "위치": "전라남도 강진군 군동면 장산리 산112-8",
        "유효저수량": "938"
    },
    {
        "name": "heungsa",
        "ko_name": "흥사저수지",
        "latitude": "35.09161976",
        "longitude": "127.9992782",
        "위치": "경상남도 사천시 곤양면 흥사리 산56",
        "유효저수량": "937.8"
    },
    {
        "name": "dochon",
        "ko_name": "도촌저수지",
        "latitude": "34.73198808",
        "longitude": "127.1562798",
        "위치": "경상북도 안동시 예안면 도촌리",
        "유효저수량": "937.2"
    },
    {
        "name": "baekseok",
        "ko_name": "백석저수지",
        "latitude": "36.80269644",
        "longitude": "128.4556441",
        "위치": "경상북도 예천군 효자면 백석리 62",
        "유효저수량": "934.1"
    },
    {
        "name": "nohyeon",
        "ko_name": "노현저수지",
        "latitude": "36.50178367",
        "longitude": "128.5981517",
        "위치": "충청북도 청주시 상당구 문의면 노현리 산1-6",
        "유효저수량": "928.9"
    },
    {
        "name": "seokdong",
        "ko_name": "석동저수지",
        "latitude": "35.98784039",
        "longitude": "129.4725849",
        "위치": "충청남도 금산군 남이면 석동리 554-2",
        "유효저수량": "927.6"
    },
    {
        "name": "yureo",
        "ko_name": "율어저수지",
        "latitude": "34.87799821",
        "longitude": "127.2328846",
        "위치": "전라남도 보성군 율어면 유신리 408-8",
        "유효저수량": "927.1"
    },
    {
        "name": "andeok",
        "ko_name": "안덕저수지",
        "latitude": "35.68371346",
        "longitude": "127.0944544",
        "위치": "전북특별자치도 완주군 구이면 안덕리 산31-4",
        "유효저수량": "924"
    },
    {
        "name": "chodang",
        "ko_name": "초당저수지",
        "latitude": "37.38726223",
        "longitude": "129.2042863",
        "위치": "강원특별자치도 삼척시 근덕면 상맹방리 산124",
        "유효저수량": "921.9"
    },
    {
        "name": "magok",
        "ko_name": "마곡저수지",
        "latitude": "35.3550915",
        "longitude": "127.3992965",
        "위치": "전북특별자치도 남원시 수지면 고평리 1337",
        "유효저수량": "920"
    },
    {
        "name": "naeri",
        "ko_name": "내리저수지",
        "latitude": "37.05476119",
        "longitude": "127.1086816",
        "위치": "전라남도 화순군 사평면 내리 산155-4",
        "유효저수량": "920"
    },
    {
        "name": "yeonso",
        "ko_name": "연소저수지",
        "latitude": "34.82705285",
        "longitude": "126.7796945",
        "위치": "전라남도 영암군 금정면 연소리 산107-8",
        "유효저수량": "920"
    },
    {
        "name": "daean",
        "ko_name": "대안저수지",
        "latitude": "37.28055684",
        "longitude": "127.8799833",
        "위치": "강원특별자치도 원주시 흥업면 대안리 산150-9",
        "유효저수량": "916"
    },
    {
        "name": "woljeong",
        "ko_name": "월정저수지",
        "latitude": "35.19743956",
        "longitude": "128.20522",
        "위치": "전북특별자치도 순창군 구림면 운북리 산76-2",
        "유효저수량": "915.9"
    },
    {
        "name": "eungseok",
        "ko_name": "응석저수지",
        "latitude": "35.29106299",
        "longitude": "128.0605972",
        "위치": "경상남도 진주시 집현면 정평리 산99",
        "유효저수량": "912.1"
    },
    {
        "name": "bonghyeon",
        "ko_name": "봉현저수지",
        "latitude": "34.97331551",
        "longitude": "128.1345434",
        "위치": "경상남도 사천시 사남면 계양리 산99-6",
        "유효저수량": "910.4"
    },
    {
        "name": "gahak",
        "ko_name": "가학저수지",
        "latitude": "34.63314498",
        "longitude": "127.3933812",
        "위치": "전라남도 해남군 계곡면 가학리 산52-4",
        "유효저수량": "910"
    },
    {
        "name": "bongjeong",
        "ko_name": "봉정저수지",
        "latitude": "36.62934999",
        "longitude": "128.2403144",
        "위치": "전라남도 곡성군 죽곡면 봉정리 산92-4",
        "유효저수량": "909"
    },
    {
        "name": "cheongung",
        "ko_name": "청웅저수지",
        "latitude": "35.58133354",
        "longitude": "127.1884739",
        "위치": "전북특별자치도 임실군 청웅면 구고리 산62-3",
        "유효저수량": "908"
    },
    {
        "name": "seongji",
        "ko_name": "성지저수지",
        "latitude": "35.90688163",
        "longitude": "129.2807455",
        "위치": "경상북도 경주시 천북면 성지리 411-2",
        "유효저수량": "902.9"
    },
    {
        "name": "dongmak",
        "ko_name": "동막저수지",
        "latitude": "37.47540855",
        "longitude": "127.9343849",
        "위치": "강원특별자치도 강릉시 구정면 어단리 산70-1",
        "유효저수량": "902.3"
    },
    {
        "name": "tandong",
        "ko_name": "탄동저수지",
        "latitude": "35.02994515",
        "longitude": "126.1782745",
        "위치": "전라남도 신안군 지도읍 탄동리 산219-4",
        "유효저수량": "900"
    },
    {
        "name": "eocheon",
        "ko_name": "어천저수지",
        "latitude": "37.25480055",
        "longitude": "126.9170527",
        "위치": "경기도 화성시 매송면 어천리 산41-2",
        "유효저수량": "893.7"
    },
    {
        "name": "dongbu",
        "ko_name": "동부저수지",
        "latitude": "34.81218367",
        "longitude": "128.6237708",
        "위치": "경상남도 거제시 동부면 산양리 산41-1",
        "유효저수량": "891.9"
    },
    {
        "name": "baekma",
        "ko_name": "백마저수지",
        "latitude": "36.83767588",
        "longitude": "127.6569103",
        "위치": "충청북도 괴산군 사리면 소매리 산2-3",
        "유효저수량": "891.7"
    },
    {
        "name": "inpyeong",
        "ko_name": "인평저수지",
        "latitude": "36.75951431",
        "longitude": "126.3473995",
        "위치": "충청남도 태안군 태안읍 인평리 1119",
        "유효저수량": "890.7"
    },
    {
        "name": "gogi",
        "ko_name": "고기저수지",
        "latitude": "35.37692486",
        "longitude": "127.5076796",
        "위치": "전북특별자치도 남원시 주천면 고기리 산89-5",
        "유효저수량": "887"
    },
    {
        "name": "sinri",
        "ko_name": "신리저수지",
        "latitude": "37.55075063",
        "longitude": "128.4636507",
        "위치": "강원특별자치도 평창군 대화면 신리 산386-1",
        "유효저수량": "882"
    },
    {
        "name": "gangjin",
        "ko_name": "강진저수지",
        "latitude": "36.15565217",
        "longitude": "127.9631804",
        "위치": "충청북도 영동군 매곡면 강진리 산71-1",
        "유효저수량": "879"
    },
    {
        "name": "baegun",
        "ko_name": "백운저수지",
        "latitude": "34.99786823",
        "longitude": "127.5879112",
        "위치": "전라남도 화순군 청풍면 백운리 833-3",
        "유효저수량": "878"
    },
    {
        "name": "yangsin",
        "ko_name": "양신저수지",
        "latitude": "35.46947106",
        "longitude": "127.0124036",
        "위치": "전북특별자치도 순창군 쌍치면 양신리 산122-7",
        "유효저수량": "877.9"
    },
    {
        "name": "obong",
        "ko_name": "오봉저수지",
        "latitude": "37.69553849",
        "longitude": "128.8170514",
        "위치": "충청남도 당진시 신평면 상오리 486-7",
        "유효저수량": "875"
    },
    {
        "name": "onjeong",
        "ko_name": "온정저수지",
        "latitude": "35.42329155",
        "longitude": "128.6122789",
        "위치": "경상북도 울진군 온정면 온정리 산5-15",
        "유효저수량": "872"
    },
    {
        "name": "gisan",
        "ko_name": "기산저수지",
        "latitude": "37.94121256",
        "longitude": "127.3406154",
        "위치": "경기도 양주시 백석읍 기산리 산139-1",
        "유효저수량": "871"
    },
    {
        "name": "eungok",
        "ko_name": "은곡저수지",
        "latitude": "35.70595643",
        "longitude": "127.0357886",
        "위치": "충청남도 청양군 장평면 적곡리 169-1",
        "유효저수량": "866.5"
    },
    {
        "name": "chari",
        "ko_name": "차리저수지",
        "latitude": "35.64014367",
        "longitude": "129.1126116",
        "위치": "울산광역시 울주군 두서면 차리 386-1",
        "유효저수량": "865.8"
    },
    {
        "name": "nambuk",
        "ko_name": "남북저수지",
        "latitude": "36.06252209",
        "longitude": "128.2770611",
        "위치": "경상북도 김천시 남면 부상리 1120",
        "유효저수량": "863.7"
    },
    {
        "name": "yangchon",
        "ko_name": "양촌저수지",
        "latitude": "35.25001668",
        "longitude": "128.4661316",
        "위치": "전북특별자치도 남원시 운봉읍 가산리 77",
        "유효저수량": "863"
    },
    {
        "name": "geumcheon",
        "ko_name": "금천저수지",
        "latitude": "35.6584642",
        "longitude": "127.9944077",
        "위치": "경상북도 청도군 각북면 금천리 산77-1",
        "유효저수량": "863"
    },
    {
        "name": "balsan",
        "ko_name": "발산저수지",
        "latitude": "35.14186691",
        "longitude": "128.3498912",
        "위치": "경상남도 진주시 이반성면 발산리 산109-1",
        "유효저수량": "861.7"
    },
    {
        "name": "hwagok",
        "ko_name": "화곡저수지",
        "latitude": "37.15972747",
        "longitude": "127.1899146",
        "위치": "충청북도 충주시 주덕읍 화곡리 1261",
        "유효저수량": "861"
    },
    {
        "name": "nogu",
        "ko_name": "노구저수지",
        "latitude": "34.85896498",
        "longitude": "127.8355787",
        "위치": "경상남도 남해군 서면 노구리 산69-3",
        "유효저수량": "857.4"
    },
    {
        "name": "surak",
        "ko_name": "수락저수지",
        "latitude": "35.35195302",
        "longitude": "127.4661481",
        "위치": "충청남도 논산시 벌곡면 수락리 217-2",
        "유효저수량": "856.3"
    },
    {
        "name": "hakdong",
        "ko_name": "학동저수지",
        "latitude": "34.9570134",
        "longitude": "128.1891844",
        "위치": "전라남도 강진군 작천면 갈동리 342",
        "유효저수량": "856"
    },
    {
        "name": "naksaeng",
        "ko_name": "낙생저수지",
        "latitude": "37.35212127",
        "longitude": "127.0754384",
        "위치": "경기도 성남시 분당구 동원동 산67-7",
        "유효저수량": "855.8"
    },
    {
        "name": "seonam",
        "ko_name": "선암저수지",
        "latitude": "35.51670501",
        "longitude": "129.3282156",
        "위치": "전북특별자치도 김제시 금구면 선암리 산3-3",
        "유효저수량": "853.4"
    },
    {
        "name": "samga",
        "ko_name": "삼가저수지",
        "latitude": "35.8909774",
        "longitude": "127.6605525",
        "위치": "경상남도 의령군 대의면 행정리 산24-1",
        "유효저수량": "853.2"
    },
    {
        "name": "hakdong",
        "ko_name": "학동저수지",
        "latitude": "34.9570134",
        "longitude": "128.1891844",
        "위치": "전라남도 보성군 노동면 학동리 산14-4",
        "유효저수량": "850"
    },
    {
        "name": "oryu",
        "ko_name": "오류저수지",
        "latitude": "34.53781808",
        "longitude": "126.3330077",
        "위치": "전라남도 해남군 계곡면 성진리 산81-2",
        "유효저수량": "847.8"
    },